Station, Station Name, Elevation, Latitude, Longitude, Date, DPNP, DPNT, DPT90, DX32,Normalized DPNT,Normalized Elevation,Normalized DPNP, DPNT Class, Elevation Class, DPNP Class, Normalized Latitude, Normalized Longitude, Latitude Class, Longitude Class
COOP:166657,NEW IBERIA AIRPORT ACADIANA REGIONAL LA US,7.3,30.0375,-91.8839,9,-246,20,19,0,1.091045353,-1.172806797,-2.048588124, Warm, Low, Very Dry,-1.862922347,0.419296271,South,Central
COOP:028468,TEEC NOS POS AZ US,1612.4,36.9233,-109.09,9,40,20,6,0,1.091045353,2.282024696,0.369668187, Warm, Very High, Normal,-0.478751039,-0.875454807,Central,Central
COOP:457180,ROSALIA WA US,733,47.2325,-117.3626,9,-35,29,0,0,1.833530196,0.389196327,-0.264489937, Warm, Normal, Normal,1.593586069,-1.497964137,North,West
COOP:457185,ROSS DAM WA US,376.7,48.7272,-121.0722,9,47,15,0,0,0.678553773,-0.377706957,0.428856278, Normal, Normal, Normal,1.894048013,-1.777109823,North,West
COOP:210252,ARGYLE MN US,258.2,48.3311,-96.8252,9,-23,20,0,0,1.091045353,-0.632767409,-0.163024637, Warm, Normal, Normal,1.814424693,0.047465728,North,Central
COOP:478376,SURING WI US,241.4,44.9958,-88.3786,9,351,-1,0,0,-0.641419281,-0.668927878,2.999310539, Normal, Normal, Very Wet,1.1439686,0.683068477,North,Central
COOP:133632,HARLAN 1 N IA US,414.5,41.6403,-95.2875,9,113,8,1,0,0.101065562,-0.296345901,0.986915427, Normal, Normal, Normal,0.469451939,0.163176943,Central,Central
COOP:356883,PRINEVILLE OR US,888.5,44.3023,-120.808,9,7,29,3,0,1.833530196,0.723895908,0.090638612, Warm, Normal, Normal,1.00456246,-1.757228895,North,West
COOP:166667,NEW ORLEANS LAKEFRONT AIRPORT LA US,2.7,30.0494,-90.0288,9,80,11,11,0,0.34856051,-1.182707878,0.707885853, Normal, Low, Normal,-1.86053023,0.558891689,South,Central
COOP:166664,NEW ORLEANS AUDUBON LA US,6.1,29.9166,-90.1302,9,-306,20,20,0,1.091045353,-1.175389688,-2.555914623, Warm, Low, Very Dry,-1.887225451,0.551261386,South,Central
COOP:067970,STAMFORD 5 N CT US,57.9,41.1247,-73.5475,9,0,6,2,0,-0.06393107,-1.063894908,0.031450521, Normal, Low, Normal,0.365806941,1.799101902,Central,East
COOP:253755,HEMINGFORD NE US,1301.5,42.3208,-103.0733,9,312,0,1,0,-0.558920965,1.612840776,2.669548315, Normal, High, Very Wet,0.606244842,-0.422700911,Central,Central
COOP:144665,LEOTI 1 SE KS US,1009.5,38.4795,-101.3657,9,-28,27,6,0,1.668533564,0.984337383,-0.205301845, Warm, Normal, Normal,-0.165926473,-0.2942048,Central,Central
COOP:300785,BOONVILLE 4 SSW NY US,472.4,43.4361,-75.3697,9,-143,6,0,0,-0.06393107,-0.171721427,-1.177677634, Normal, Normal, Dry,0.830440471,1.661982193,Central,East
COOP:166660,NEW ORLEANS INTERNATIONAL AIRPORT LA US,1.2,29.9933,-90.2511,9,-112,19,15,0,1.008547037,-1.185936491,-0.915558943, Warm, Low, Normal,-1.871807353,0.542163717,South,Central
COOP:154202,JACKSON JULIAN CARROLL AIRPORT KY US,416.1,37.59139,-83.31444,9,-111,3,0,0,-0.311426018,-0.292902047,-0.907103502, Normal, Normal, Normal,-0.344452771,1.064144178,Central,East
COOP:154208,JAMESTOWN KY US,271.3,37.0055,-85.0616,9,-256,12,0,0,0.431058826,-0.604570853,-2.13314254, Normal, Normal, Very Dry,-0.46222734,0.932671195,Central,Central
COOP:243176,FORT PECK POWER PLAN MT US,630.9,48.0119,-106.4117,9,-47,-10,1,0,-1.383904124,0.169435381,-0.365955236, Cold, Normal, Normal,1.750259675,-0.673913969,North,Central
COOP:093538,FORT STEWART GA US,28,31.8717,-81.6289,9,168,31,9,0,1.998526828,-1.128251933,1.451964718, Warm, Low, Wet,-1.494214715,1.190980284,South,East
COOP:094676,JESUP 8 S GA US,30.5,31.5075,-81.8628,9,0,0,0,0,-0.558920965,-1.122870911,0.031450521, Normal, Low, Normal,-1.567425553,1.173379417,South,East
COOP:476208,OCONTO 4 W WI US,201.2,44.8919,-87.955,9,344,-8,0,0,-1.218907492,-0.755454715,2.940122447, Cold, Normal, Very Wet,1.123082806,0.714944181,North,Central
COOP:028499,TEMPE ASU AZ US,355.7,33.4258,-111.9216,9,543,-7,23,0,-1.136409177,-0.422907543,4.622755335, Cold, Normal, Very Wet,-1.181812288,-1.0885314,South,West
COOP:478349,SUPERIOR US,192,46.7,-92.0167,9,-191,0,0,0,-0.558920965,-0.775256877,-1.583538833, Normal, Normal, Dry,1.486543863,0.409303132,North,Central
COOP:476200,OCONOMOWOC WI US,260.9,43.1002,-88.5036,9,-239,-6,0,0,-1.053910861,-0.626955905,-1.989400032, Cold, Normal, Dry,0.762918449,0.673662284,Central,Central
COOP:144695,LIBERAL KS US,863.8,37.0222,-100.9294,9,-46,11,10,0,0.34856051,0.670731409,-0.357499795, Normal, Normal, Normal,-0.458870336,-0.261373426,Central,Central
COOP:243113,FORT BENTON MT US,807.4,47.8305,-110.6609,9,37,3,2,0,-0.311426018,0.549335548,0.344301862, Normal, Normal, Normal,1.713794969,-0.993664307,North,Central
COOP:243110,FORT ASSINNIBOINE MT US,815.3,48.4982,-109.8014,9,-46,-15,1,0,-1.796395704,0.566339578,-0.357499795, Cold, Normal, Normal,1.848014839,-0.928987329,North,Central
COOP:503368,GOLDSTREAM CREEK AK US,175.9,64.89389,-147.87528,9,0,0,0,0,-0.558920965,-0.80991066,0.031450521, Normal, Normal, Normal,5.143847375,-3.794029214,Far North,West
COOP:243118,FORT BELKNAP 2 SW MT US,770.2,48.46278,-108.77917,9,0,0,0,0,-0.558920965,0.469265938,0.031450521, Normal, Normal, Normal,1.840894773,-0.852064993,North,Central
COOP:345855,MIAMI OK US,245.4,36.8833,-94.8833,9,-167,-3,7,0,-0.806415913,-0.660318243,-1.380608234, Normal, Normal, Dry,-0.486791768,0.193592806,Central,Central
COOP:383470,GEORGETOWN CO AIRPORT SC US,9.1,33.3169,-79.3227,9,-10,7,8,0,0.018567246,-1.168932461,-0.053103895, Normal, Low, Normal,-1.203703173,1.364520769,South,East
COOP:478316,MILWAUKEE WSFO DOUSMAN WI US,284.4,42.9675,-88.5497,9,-217,-10,0,0,-1.383904124,-0.576374296,-1.803380316, Cold, Normal, Dry,0.73624333,0.670193281,Central,Central
COOP:470516,BARABOO WI US,250.9,43.4583,-89.7269,9,-141,9,0,0,0.183563878,-0.648479994,-1.160766751, Normal, Normal, Dry,0.834903076,0.581609524,Central,Central
COOP:137594,SHELDON IA US,432.8,43.1808,-95.8528,9,-108,4,0,0,-0.228927702,-0.256956818,-0.881737177, Normal, Normal, Normal,0.779120518,0.120638379,Central,Central
COOP:242409,DILLON WMCE MT US,1593.5,45.2127,-112.6447,9,22,-3,0,0,-0.806415913,2.241344168,0.217470237, Normal, Very High, Normal,1.187569454,-1.142944341,North,West
COOP:233601,HANNIBAL WATER WORKS MO US,217,39.7233,-91.3719,9,263,-10,3,0,-1.383904124,-0.721446655,2.255231674, Cold, Normal, Very Wet,0.084099997,0.457824034,Central,Central
COOP:424467,KAMAS 3 NW UT US,1975.4,40.6438,-111.2822,9,256,16,0,0,0.761052089,3.06334912,2.196043582, Normal, Very High, Very Wet,0.269137276,-1.040416845,Central,West
COOP:242404,DILLON AIRPORT MT US,1585,45.2575,-112.5544,9,-1,11,0,0,0.34856051,2.223048693,0.022995079, Normal, Very High, Normal,1.19657507,-1.136149307,North,West
COOP:243142,FORTINE 2 NE MT US,926.6,48.78222,-114.87667,9,0,0,0,0,-0.558920965,0.805902686,0.031450521, Normal, Normal, Normal,1.905108036,-1.310899052,North,West
COOP:468191,SISSONVILLE 1 SW WV US,187.5,38.51667,-81.64528,9,0,0,0,0,-0.558920965,-0.784942717,0.031450521, Normal, Normal, Normal,-0.158454626,1.189747697,Central,East
COOP:116080,NEW BOSTON DAM 17 IL US,167,41.1924,-91.0579,9,103,-13,1,0,-1.631399072,-0.829067099,0.902361011, Cold, Normal, Normal,0.379415875,0.481452389,Central,Central
COOP:345870,MINCO 2 SSW MESONET OK US,429.8,35.27222,-97.95528,9,0,0,8,0,-0.558920965,-0.263414045,0.031450521, Normal, Normal, Normal,-0.810648213,-0.03757227,Central,Central
COOP:253735,HEBRON NE US,451.1,40.175,-97.5902,9,-37,-8,3,0,-1.218907492,-0.217567736,-0.28140082, Cold, Normal, Normal,0.174899931,-0.010100169,Central,Central
COOP:426869,PINE VIEW DAM UT US,1505.7,41.2578,-111.8378,9,9,31,0,0,1.998526828,2.052362669,0.107549496, Warm, Very High, Normal,0.392562467,-1.082225488,Central,West
COOP:301309,CENTERPORT NY US,9.1,40.8838,-73.3722,9,-177,12,0,0,0.431058826,-1.168932461,-1.46516265, Normal, Low, Dry,0.31738165,1.812293146,Central,East
COOP:507251,PETERSBURG 1 AK US,32.6,56.8055,-132.9372,9,157,29,0,0,1.833530196,-1.118350852,1.358954859, Warm, Low, Wet,3.517933557,-2.669945593,Far North,West
COOP:425582,MEXICAN HAT UT US,1252.4,37.1497,-109.8675,9,34,35,21,0,2.328520091,1.507157499,0.318935537, Very Warm, High, Normal,-0.433240512,-0.933961323,Central,Central
COOP:418924,TERLINGUA TX US,802.5,29.3485,-103.595,9,127,-6,18,0,-1.053910861,0.538788744,1.10529161, Cold, Normal, Wet,-2.001423906,-0.461958595,Far South,Central
COOP:508375,SEWARD 8 NW AK US,129.2,60.1883,-149.6274,9,0,0,0,0,-0.558920965,-0.910428154,0.031450521, Normal, Normal, Normal,4.197938016,-3.925875435,Far North,West
COOP:508377,SEWARD 19 N AK US,157.9,60.3538,-149.3483,9,0,0,0,0,-0.558920965,-0.84865402,0.031450521, Normal, Normal, Normal,4.231206533,-3.904873288,Far North,West
COOP:665693,MAGUEYES ISLAND US,3.7,17.9722,-67.0461,9,-54,-10,15,0,-1.383904124,-1.180555469,-0.425143328, Cold, Low, Normal,-4.288267563,2.288329249,Far South,Far East
COOP:035046,MOUNTAIN VIEW AR US,218.2,35.8445,-92.0979,9,-299,0,5,0,-0.558920965,-0.718863764,-2.496726531, Normal, Normal, Very Dry,-0.695609502,0.40319287,Central,Central
COOP:138688,WASHINGTON IA US,209.4,41.2824,-91.7078,9,404,-14,1,0,-1.713897388,-0.737804962,3.447448946, Cold, Normal, Very Wet,0.397507515,0.432547714,Central,Central
COOP:505136,KUPARUK AK US,19.5,70.3289,-149.6114,9,6,-11,0,0,-1.46640244,-1.146547409,0.082183171, Cold, Low, Normal,6.23638345,-3.924671442,Far North,West
COOP:368361,SPRINGBORO 3 WNW PA US,306.3,41.8162,-80.4249,9,-111,0,0,0,-0.558920965,-0.529236542,-0.907103502, Normal, Normal, Normal,0.504811045,1.281580728,Central,East
COOP:417458,RAYMONDVILLE TX US,9.4,26.4819,-97.8097,9,0,0,7,0,-0.558920965,-1.168286738,0.031450521, Normal, Low, Normal,-2.577662756,-0.026617442,Far South,Central
COOP:035036,MOUNTAIN HOME 1 NNW AR US,243.8,36.3458,-92.3939,9,-74,-12,3,0,-1.548900756,-0.663762097,-0.594252161, Cold, Normal, Normal,-0.594839065,0.380919006,Central,Central
COOP:049203,VACAVILLE NUT TREE AIRPORT CA US,33.2,38.3775,-121.9575,9,21,13,17,0,0.513557142,-1.117059407,0.209014796, Normal, Low, Normal,-0.186430333,-1.843728239,Central,West
COOP:247382,SAVAGE MT US,602,47.4536,-104.3379,9,-45,-12,2,0,-1.548900756,0.107230764,-0.349044353, Cold, Normal, Normal,1.638031199,-0.517861477,North,Central
COOP:405035,LANCASTER EDGAR EVINS TN US,192,36.0827,-85.826,9,-56,5,0,0,-0.146429386,-0.775256877,-0.442054211, Normal, Normal, Normal,-0.64772696,0.875150448,Central,Central
COOP:094648,JASPER 1 NNW GA US,446.5,34.4758,-84.4461,9,2,5,0,0,-0.146429386,-0.227468817,0.048361404, Normal, Normal, Normal,-0.97074315,0.978987285,Central,Central
COOP:081986,CRESTVIEW BOB SIKES AIRPORT FL US,57.9,30.77972,-86.5225,9,-353,25,21,0,1.503536932,-1.063894908,-2.95332038, Warm, Low, Very Dry,-1.713722599,0.822739144,South,Central
COOP:518549,PUU O HOKU RANCH 542.1 HI US,205.4,21.1447,-156.7329,9,0,-3,0,0,-0.806415913,-0.746414598,0.031450521, Normal, Normal, Normal,-3.650537237,-4.460561028,Far South,Far West
COOP:190770,BOSTON LOGAN INTERNATIONAL AIRPORT MA US,3.7,42.3606,-71.0106,9,-274,13,3,0,0.513557142,-1.180555469,-2.28534049, Normal, Low, Very Dry,0.614245368,1.990002455,Central,East
COOP:020100,ALAMO DAM AZ US,393.2,34.228,-113.5777,9,209,9,29,0,0.183563878,-0.34219221,1.798637825, Normal, Normal, Wet,-1.020555466,-1.21315216,South,West
COOP:461579,CHARLESTON WSFO WV US,279.8,38.3138,-81.7186,9,-37,8,0,0,0.101065562,-0.586275377,-0.28140082, Normal, Normal, Normal,-0.199235194,1.184230401,Central,East
COOP:081978,CRESCENT CITY FL US,16.2,29.425,-81.5161,9,10,-16,4,0,-1.87889402,-1.153650358,0.116004937, Cold, Low, Normal,-1.986046011,1.199468432,South,East
COOP:461570,CHARLESTON YEAGER AIRPORT WV US,277.4,38.3794,-81.59,9,124,3,0,0,-0.311426018,-0.591441158,1.079925285, Normal, Normal, Wet,-0.186048398,1.193907491,Central,East
COOP:035018,MOUNTAINBURG 2 NE AR US,241.7,35.6494,-94.1541,9,159,5,6,0,-0.146429386,-0.668282155,1.375865743, Normal, Normal, Wet,-0.734828158,0.248464769,Central,Central
COOP:411761,CLARENDON TX US,850.4,34.9414,-100.9126,9,-160,-5,7,0,-0.971412545,0.64188913,-1.321420142, Normal, Normal, Dry,-0.877149063,-0.260109234,Central,Central
COOP:356820,POWERS OR US,70.1,42.8886,-124.0688,9,28,0,0,0,-0.558920965,-1.037635519,0.268202887, Normal, Low, Normal,0.720382992,-2.002602589,Central,West
COOP:099291,WEST POINT GA US,175.3,32.879,-85.1809,9,0,0,0,0,-0.558920965,-0.811202105,0.031450521, Normal, Normal, Normal,-1.291729055,0.923693925,South,Central
COOP:042012,CORCORAN IRRIG DIST CA US,61,36.0975,-119.5817,9,-14,40,24,0,2.741011671,-1.05722244,-0.086925662, Very Warm, Low, Normal,-0.644751891,-1.664950387,Central,West
COOP:348900,TISHOMINGO 6 N MESONET OK US,267.9,34.3326,-96.679,9,0,0,9,0,-0.558920965,-0.611889043,0.031450521, Normal, Normal, Normal,-0.99952896,0.05846721,Central,Central
COOP:503304,GLENNALLEN KCAM AK US,421.5,62.1086,-145.5328,9,48,10,0,0,0.266062194,-0.281279039,0.43731172, Normal, Normal, Normal,4.583953318,-3.617758676,Far North,West
COOP:205390,MERRILL 1 N MI US,203.6,43.4155,-83.2894,9,0,0,0,0,-0.558920965,-0.750288934,0.031450521, Normal, Normal, Normal,0.826299496,1.066028426,Central,East
COOP:067958,STAFFORDVILLE CT US,224.3,41.9984,-72.2606,9,-200,5,0,0,-0.146429386,-0.70573407,-1.659637808, Normal, Normal, Dry,0.541436566,1.895940532,Central,East
COOP:036928,SUBIACO AR US,152.4,35.3028,-93.6369,9,-45,-8,5,0,-1.218907492,-0.860492268,-0.349044353, Cold, Normal, Normal,-0.804501076,0.28738383,Central,Central
COOP:252680,ELSMERE NE US,808.9,42.1717,-100.0106,9,-21,5,5,0,-0.146429386,0.552564161,-0.146113754, Normal, Normal, Normal,0.576273025,-0.192234151,Central,Central
COOP:167738,RED RIVER RESEARCH STATION LA US,47.2,32.4219,-93.638,9,-136,16,13,0,0.761052089,-1.086925683,-1.118489543, Normal, Low, Dry,-1.383614486,0.287301056,South,Central
COOP:247342,SAND CREEK MT US,887,47.5775,-108.7272,9,87,10,2,0,0.266062194,0.720667295,0.767073944, Normal, Normal, Normal,1.662937357,-0.848154275,North,Central
COOP:036920,STUTTGART 9 ESE AR US,60.4,34.4744,-91.4172,9,-144,11,4,0,0.34856051,-1.058513885,-1.186133076, Normal, Low, Dry,-0.971024575,0.45441523,Central,Central
COOP:020159,ALPINE AZ US,2453.6,33.8492,-109.1469,9,122,45,0,0,3.153503251,4.092631046,1.063014402, Very Warm, Very High, Wet,-1.096701171,-0.879736506,South,Central
COOP:348879,TIPTON 4 S OK US,386.8,34.43972,-99.1375,9,0,0,11,0,-0.558920965,-0.355967627,0.031450521, Normal, Normal, Normal,-0.977995887,-0.126533779,Central,Central
COOP:511303,HAWAII VOL NATIONAL PARK HQ 54 HI US,1210.4,19.4297,-155.2562,9,-28,0,0,0,-0.558920965,1.416756327,-0.205301845, Normal, High, Normal,-3.995283497,-4.349440035,Far South,Far West
COOP:340830,BLANCHARD 2 SSW OK US,388.6,35.11833,-97.67,9,-307,22,14,0,1.256041985,-0.352093291,-2.564370064, Warm, Normal, Very Dry,-0.841582908,-0.016105082,Central,Central
COOP:354622,LA GRANDE OR US,839.7,45.3167,-118.0747,9,-19,32,3,0,2.081025144,0.618858355,-0.12920287, Very Warm, Normal, Normal,1.208475349,-1.551549333,North,West
COOP:343628,GOODWELL RESEARCH STATION OK US,999.1,36.5913,-101.618,9,0,-7,3,0,-1.136409177,0.96195233,0.031450521, Cold, Normal, Normal,-0.54548909,-0.313190258,Central,Central
COOP:190736,EAST MILTON BLUE HILL OBSERVATORY MA US,190.5,42.2123,-71.1137,9,0,0,2,0,-0.558920965,-0.77848549,0.031450521, Normal, Normal, Normal,0.584434365,1.982244228,Central,East
COOP:138706,WATERLOO MUNICIPAL AIRPORT IA US,264.6,42.5544,-92.4011,9,-97,-16,1,0,-1.87889402,-0.618991992,-0.788727319, Cold, Normal, Normal,0.6532027,0.38037721,Central,Central
COOP:247425,SCOBEY 4 NW MT US,723.6,48.8306,-105.4758,9,-39,-10,2,0,-1.383904124,0.368963684,-0.298311703, Cold, Normal, Normal,1.914833298,-0.603487927,North,Central
COOP:232981,FORT LEONARD WOOD MO US,325.5,37.748,-92.1049,9,0,6,4,0,-0.06393107,-0.487910291,0.031450521, Normal, Normal, Normal,-0.312971307,0.402666123,Central,Central
COOP:664614,HUMACAO NATURAL RESERVE US,2.7,18.1505,-66.7719,9,0,0,0,0,-0.558920965,-1.182707878,0.031450521, Normal, Low, Normal,-4.252426013,2.308962672,Far South,Far East
COOP:143153,GOODLAND RENNER FIELD KS US,1114.3,39.36722,-101.69333,9,82,7,3,0,0.018567246,1.209909833,0.724796736, Normal, High, Normal,0.012521427,-0.318858806,Central,Central
COOP:368400,SPRINGTOWN 1 NNE PA US,262.1,40.5711,-75.2781,9,-317,16,2,0,0.761052089,-0.624373014,-2.648924481, Normal, Normal, Very Dry,0.25452325,1.668875051,Central,East
COOP:354606,LACOMB 3 NNE OR US,158.5,44.6253,-122.7189,9,51,22,3,0,1.256041985,-0.847362574,0.462678045, Warm, Normal, Normal,1.069491347,-1.901023238,North,West
COOP:049152,U C L A CA US,131.1,34.0697,-118.4427,9,-25,46,5,0,3.236001566,-0.906338578,-0.17993552, Very Warm, Normal, Normal,-1.052376652,-1.579241163,South,West
COOP:511339,HAWI 168 HI US,176.8,20.2402,-155.8388,9,0,17,0,0,0.843550405,-0.807973492,0.031450521, Normal, Normal, Normal,-3.832358224,-4.393280416,Far South,Far West
COOP:418996,THOMPSONS 3 WSW TX US,21.3,29.4821,-95.6314,9,41,13,21,0,0.513557142,-1.142673073,0.378123628, Normal, Low, Normal,-1.97456787,0.137298627,South,Central
COOP:096838,PATTERSON GA US,32,31.3781,-82.1292,9,0,26,13,0,1.586035248,-1.119642298,0.031450521, Warm, Low, Normal,-1.593437312,1.15333294,South,East
COOP:411810,CLEVELAND TX US,59.7,30.3637,-95.084,9,308,-3,9,0,-0.806415913,-1.060020572,2.635726548, Normal, Low, Very Wet,-1.797350201,0.178490224,South,Central
COOP:245144,LOLO HOT SPRINGS MT US,1272.5,46.7258,-114.533,9,0,0,0,0,-0.558920965,1.550420918,0.031450521, Normal, High, Normal,1.491730133,-1.285038043,North,West
COOP:122620,ELNORA IN US,145.7,38.8701,-87.0917,9,0,0,3,0,-0.558920965,-0.874913408,0.031450521, Normal, Normal, Normal,-0.087408754,0.779907107,Central,Central
COOP:445880,MUSTOE 1 SW VA US,725.4,38.3311,-79.6586,9,-296,3,0,0,-0.311426018,0.37283802,-2.471360206, Normal, Normal, Very Dry,-0.195757578,1.339244449,Central,East
COOP:130923,BRITT IA US,378,43.1016,-93.8013,9,117,-18,0,0,-2.043890652,-0.374908825,1.020737194, Very Cold, Normal, Wet,0.763199874,0.275012806,Central,Central
COOP:033734,JONESBORO 2 NE AR US,94.5,35.849,-90.6589,9,-120,13,9,0,0.513557142,-0.985116743,-0.983202477, Normal, Normal, Normal,-0.69470492,0.511476955,Central,Central
COOP:042081,COVELO CA US,430.7,39.8158,-123.2444,9,0,0,0,0,-0.558920965,-0.261476877,0.031450521, Normal, Normal, Normal,0.102694183,-1.94056687,Central,West
COOP:294862,LAS VEGAS WASTE WATER PLANT NM US,1935.2,35.5677,-105.213,9,0,0,0,0,-0.558920965,2.976822283,0.031450521, Normal, Very High, Normal,-0.751251347,-0.583712348,Central,Central
COOP:049122,UKIAH CA US,193.9,39.1466,-123.2102,9,0,0,0,0,-0.558920965,-0.7711673,0.031450521, Normal, Normal, Normal,-0.031827214,-1.937993336,Central,West
COOP:132110,DECORAH IA US,262.1,43.3043,-91.7952,9,-64,-3,0,0,-0.806415913,-0.624373014,-0.509697744, Normal, Normal, Normal,0.803946269,0.425970905,Central,Central
COOP:259193,WESTON 3 NW NE US,406.9,41.2211,-96.7775,9,43,-26,0,0,-2.703877179,-0.312704208,0.395034512, Very Cold, Normal, Normal,0.385185098,0.051055131,Central,Central
COOP:338025,STEUBENVILLE OH US,302.4,40.3765,-80.6283,9,-243,-7,0,0,-1.136409177,-0.537630936,-2.023221799, Cold, Normal, Very Dry,0.215405103,1.266274972,Central,East
COOP:423348,GRANTSVILLE 2 W UT US,1386.8,40.602,-112.5076,9,81,24,5,0,1.421038617,1.796441253,0.716341294, Warm, High, Normal,0.260734714,-1.132627629,Central,West
COOP:418942,TEXARKANA TX US,118.9,33.4368,-94.0773,9,-197,15,13,0,0.678553773,-0.932597966,-1.634271483, Normal, Normal, Dry,-1.179601088,0.254243934,South,Central
COOP:369050,UNIONTOWN 1 NE PA US,291.4,39.915,-79.7191,9,-130,6,1,0,-0.06393107,-0.561307434,-1.067756893, Normal, Normal, Dry,0.122635192,1.334691852,Central,East
COOP:143100,GLEN ELDER LAKE KS US,457.2,39.5038,-98.315,9,-90,-50,3,0,-4.683836761,-0.204438042,-0.729539227, Very Cold, Normal, Normal,0.039976497,-0.064641034,Central,Central
COOP:245153,LOMA 1 WNW MT US,785.8,47.9362,-110.5023,9,-10,0,3,0,-0.558920965,0.502843516,-0.053103895, Normal, Normal, Normal,1.735042595,-0.98172973,North,Central
COOP:049111,TWITCHELL DAM CA US,177.4,34.988,-120.3211,9,-19,-46,0,0,-4.353843497,-0.806682046,-0.12920287, Very Cold, Normal, Normal,-0.867781614,-1.720589895,Central,West
COOP:411800,CLEBURNE TX US,238.7,32.3138,-97.4061,9,-297,12,12,0,0.431058826,-0.674739382,-2.479815648, Normal, Normal, Very Dry,-1.405344557,0.003753271,South,Central
COOP:193505,HAVERHILL MA US,6.1,42.7594,-71.0602,9,-267,4,0,0,-0.228927702,-1.175389688,-2.226152399, Normal, Low, Very Dry,0.694411437,1.986270078,Central,East
COOP:248902,WHITEFISH MT US,944.9,48.408,-114.3594,9,0,0,0,0,-0.558920965,0.845291769,0.031450521, Normal, Normal, Normal,1.829882995,-1.271974724,North,West
COOP:369042,UNION CITY FILTRATION PLANT PA US,426.7,41.9004,-79.861,9,0,0,0,0,-0.558920965,-0.270086513,0.031450521, Normal, Normal, Normal,0.52173678,1.324013943,Central,East
COOP:010655,BELLE MINA AL US,183.8,34.6891,-86.8819,9,-261,21,3,0,1.173543669,-0.79290663,-2.175419749, Warm, Normal, Very Dry,-0.927865962,0.79569446,Central,Central
COOP:021282,CAREFREE AZ US,771.1,33.8161,-111.9019,9,333,6,22,0,-0.06393107,0.471203106,2.847112589, Normal, Normal, Very Wet,-1.103354874,-1.087048984,South,West
COOP:295937,MOSQUERO 1 NE NM US,1665.7,35.8022,-103.9438,9,98,9,4,0,0.183563878,2.39674809,0.860083802, Normal, Very High, Normal,-0.704112573,-0.488205634,Central,Central
COOP:132171,DENISON IA US,427,42.0363,-95.3288,9,252,-37,0,0,-3.611358654,-0.26944079,2.162221816, Very Cold, Normal, Very Wet,0.549055157,0.160069137,Central,Central
COOP:248930,WHITE SULPHUR SPRNGS 2 MT US,1536.2,46.5436,-110.9,9,23,5,0,0,-0.146429386,2.11801114,0.225925679, Normal, Very High, Normal,1.455104612,-1.011656471,North,West
COOP:043191,FORT ROSS CA US,34.1,38.515,-123.2447,9,32,0,0,0,-0.558920965,-1.115122239,0.302024654, Normal, Low, Normal,-0.158790326,-1.940589445,Central,West
COOP:242421,DIVIDE MT US,1630.7,45.751,-112.7547,9,-46,3,0,0,-0.311426018,2.321413779,-0.357499795, Normal, Very High, Normal,1.295777565,-1.15122179,North,West
COOP:302953,FORT PLAIN NY US,93,42.9383,-74.6228,9,0,0,0,0,-0.558920965,-0.988345356,0.031450521, Normal, Normal, Normal,0.730373598,1.718186073,Central,East
COOP:422253,DUCHESNE UT US,1682.5,40.1677,-110.395,9,183,19,0,0,1.008547037,2.432908559,1.578796342, Warm, Very High, Wet,0.173432498,-0.973655455,Central,Central
COOP:668812,SAN JUAN L M MARIN INTERNATIONAL AIRPORT US,2.7,18.4325,-66.01083,9,51,-2,9,0,-0.723917597,-1.182707878,0.462678045, Normal, Low, Normal,-4.195738873,2.366232838,Far South,Far East
COOP:137669,SIDNEY 1 SSE IA US,347.5,40.736,-95.643,9,99,-21,1,0,-2.291385599,-0.440557296,0.868539244, Very Cold, Normal, Normal,0.287671156,0.136425732,Central,Central
COOP:248957,WIBAUX 2 E MT US,821.7,46.9878,-104.1567,9,14,-14,1,0,-1.713897388,0.580114995,0.149826704, Cold, Normal, Normal,1.544396909,-0.504226261,North,Central
COOP:668814,WEATHER FORECAST OFFICE SAN JUAN US,3,18.4312,-65.9917,9,0,0,10,0,-0.558920965,-1.182062155,0.031450521, Normal, Low, Normal,-4.196000197,2.367672362,Far South,Far East
COOP:137664,SIBLEY 3 NE IA US,466,43.4047,-95.7483,9,-110,1,0,0,-0.476422649,-0.185496844,-0.89864806, Normal, Normal, Normal,0.824128499,0.128501956,Central,Central
COOP:446999,RADFROD 3 N VA US,548.6,37.2008,-80.5864,9,120,15,0,0,0.678553773,-0.00770787,1.046103519, Normal, Normal, Wet,-0.422968481,1.269427928,Central,East
COOP:295968,MOUNTAINAIR 8 NW NM US,2033.6,34.6241,-106.3102,9,0,12,2,0,0.431058826,3.188619316,0.031450521, Normal, Very High, Normal,-0.940932146,-0.666276141,Central,Central
COOP:137678,SIGOURNEY IA US,243.8,41.3328,-92.1975,9,163,-17,0,0,-1.961392336,-0.663762097,1.409687509, Cold, Normal, Wet,0.407638834,0.395698016,Central,Central
COOP:295960,MOUNTAIN PARK NM US,2073.9,32.9539,-105.8226,9,651,-14,0,0,-1.713897388,3.275361394,5.535943033, Cold, Very High, Very Wet,-1.276672789,-0.629584466,South,Central
COOP:160103,ALEXANDRIA 5 SSE LA US,25.9,31.2488,-92.4488,9,-184,18,11,0,0.926048721,-1.132771992,-1.524350742, Normal, Low, Dry,-1.619428969,0.376787807,South,Central
COOP:043182,FORT JONES RNG STATION CA US,830.6,41.6,-122.8478,9,0,0,7,0,-0.558920965,0.599271434,0.031450521, Normal, Normal, Normal,0.461350904,-1.910722903,Central,West
COOP:506147,NABESNA AK US,890,62.3977,-142.9966,9,0,0,0,0,-0.558920965,0.727124521,0.031450521, Normal, Normal, Normal,4.642067687,-3.426910797,Far North,West
COOP:295965,MOUNTAINAIR NM US,1987.3,34.5208,-106.2605,9,49,10,1,0,0.266062194,3.088962785,0.445767162, Normal, Very High, Normal,-0.961697329,-0.662536239,Central,Central
COOP:462622,EAST LYNN LAKE WV US,201.8,38.1436,-82.3828,9,0,0,0,0,-0.558920965,-0.75416327,0.031450521, Normal, Normal, Normal,-0.233448496,1.134249657,Central,East
COOP:043157,FORT BIDWELL CA US,1444.4,41.8715,-120.1574,9,-33,44,1,0,3.071004935,1.920420004,-0.247579053, Very Warm, High, Normal,0.515927353,-1.708271546,Central,West
COOP:116011,NASHVILLE 1 E IL US,156.4,38.343,-89.3586,9,18,-16,1,0,-1.87889402,-0.851882633,0.183648471, Cold, Normal, Normal,-0.193365461,0.609323929,Central,Central
COOP:021248,CANYON DE CHELLY AZ US,1709.9,36.1533,-109.5394,9,9,30,4,0,1.916028512,2.491884562,0.107549496, Warm, Very High, Normal,-0.633535073,-0.90927195,Central,Central
COOP:137613,SHENANDOAH IA US,297.2,40.7672,-95.38,9,27,-13,1,0,-1.631399072,-0.548823463,0.259747445, Cold, Normal, Normal,0.293942925,0.15621636,Central,Central
COOP:343660,FREEDOM 16 NNE MESONET OK US,554.7,36.98694,-99.01083,9,0,0,8,0,-0.558920965,0.005421824,0.031450521, Normal, Normal, Normal,-0.465958239,-0.11700192,Central,Central
COOP:043161,FORT BRAGG 5 N CA US,37.5,39.5091,-123.7566,9,99,36,0,0,2.411018407,-1.107804049,0.868539244, Very Warm, Low, Normal,0.041041893,-1.979109683,Central,West
COOP:116025,NEOGA 4 NW IL US,190.5,39.3535,-88.4999,9,32,-22,1,0,-2.373883915,-0.77848549,0.302024654, Very Cold, Normal, Normal,0.009763457,0.673940708,Central,Central
COOP:300687,BINGHAMTON GREATER AP NY US,486.2,42.2068,-75.98,9,-172,11,0,0,0.34856051,-0.142018184,-1.422885442, Normal, Normal, Dry,0.583328765,1.6160574,Central,East
COOP:295908,MORIARTY 1 NE NM US,1895.9,35.0128,-106.045,9,-83,15,2,0,0.678553773,2.892232614,-0.670351136, Normal, Very High, Normal,-0.862796362,-0.646319964,Central,Central
COOP:166686,NEW ROADS LA US,13.7,30.7268,-91.3672,9,-139,3,10,0,-0.311426018,-1.15903138,-1.143855868, Normal, Low, Dry,-1.724360483,0.458177707,South,Central
COOP:210190,ANDOVER 1 N MN US,274,45.25333,-93.29278,9,-188,9,0,0,0.183563878,-0.598759349,-1.558172509, Normal, Normal, Dry,1.195736824,0.313278701,North,Central
COOP:340818,BLACKWELL OK US,307.8,36.8048,-97.2764,9,-96,10,7,0,0.266062194,-0.526007928,-0.780271877, Normal, Normal, Normal,-0.502571698,0.013513136,Central,Central
COOP:243098,FORSYTH MT US,766.6,46.2719,-106.6744,9,-89,-11,2,0,-1.46640244,0.461517266,-0.721083786, Cold, Normal, Normal,1.40048796,-0.693682023,North,Central
COOP:340810,BLACKWELL 4 SSE MESONET OK US,303.9,36.75417,-97.25444,9,0,0,7,0,-0.558920965,-0.534402323,0.031450521, Normal, Normal, Normal,-0.512749251,0.015165616,Central,Central
COOP:253660,HASTINGS 4 N NE US,590.7,40.6471,-98.3835,9,-89,-11,0,0,-1.46640244,0.082908544,-0.721083786, Cold, Normal, Normal,0.269800636,-0.069795627,Central,Central
COOP:093658,GEORGETOWN 4 E GA US,149.4,31.8966,-85.0375,9,416,4,6,0,-0.228927702,-0.866949495,3.548914246, Normal, Normal, Very Wet,-1.489209361,0.934484709,South,Central
COOP:356749,PORTLAND KGW TV OR US,48.5,45.5181,-122.6894,9,-49,29,3,0,1.833530196,-1.084127551,-0.38286612, Warm, Low, Normal,1.24896042,-1.898803376,North,West
COOP:300870,BREWERTON LOCK 23 NY US,114.9,43.2386,-76.1964,9,-179,4,0,0,-0.228927702,-0.941207601,-1.482073534, Normal, Normal, Dry,0.790739371,1.5997734,Central,East
COOP:216565,PIPESTONE MN US,519.7,44.0138,-96.3258,9,-129,13,0,0,0.513557142,-0.069912487,-1.059301451, Normal, Normal, Dry,0.946568701,0.085045347,Central,Central
COOP:021330,CASCABEL AZ US,973.5,32.3222,-110.4147,9,102,3,13,0,-0.311426018,0.906850663,0.893905569, Normal, Normal, Normal,-1.403656003,-0.975137871,South,Central
COOP:210157,AMBOY MN US,313.9,43.8835,-94.1665,9,-77,6,0,0,-0.06393107,-0.512878234,-0.619618486, Normal, Normal, Normal,0.920376026,0.247531675,Central,Central
COOP:244506,JOLIET MT US,1172.9,45.473,-109.0098,9,4,-14,1,0,-1.713897388,1.336040994,0.065272288, Cold, High, Normal,1.239894498,-0.869419794,North,Central
COOP:144559,LAWRENCE KS US,306.3,38.9583,-95.2513,9,209,-11,3,0,-1.46640244,-0.529236542,1.798637825, Cold, Normal, Wet,-0.069678946,0.165900976,Central,Central
COOP:144560,LAWRENCE MUNICIPAL AIRPORT KS US,253.6,39.00778,-95.21167,9,46,-21,2,0,-2.291385599,-0.64266849,0.420400837, Very Cold, Normal, Normal,-0.059732564,0.168883115,Central,Central
COOP:478229,STOUGHTON WI US,256,42.9108,-89.2133,9,-28,-8,0,0,-1.218907492,-0.637502708,-0.205301845, Cold, Normal, Normal,0.724845596,0.620257687,Central,Central
COOP:300889,BRIDGEHAMPTON NY US,18.3,40.946111,-72.306944,9,-319,6,0,0,-0.06393107,-1.149130299,-2.665835364, Normal, Low, Very Dry,0.329907297,1.892453168,Central,East
COOP:246893,RAYMOND BORDER STATION MT US,714.8,48.9976,-104.5751,9,54,-16,1,0,-1.87889402,0.350022486,0.48804437, Cold, Normal, Normal,1.948403341,-0.535710668,North,Central
COOP:462522,DUNLOW 1 SW WV US,365.8,37.9496,-82.4046,9,-1,0,0,0,-0.558920965,-0.401168213,0.022995079, Normal, Normal, Normal,-0.272446032,1.132609218,Central,East
COOP:253652,HASKELL AGRICULTURAL LAB NE US,445,42.3805,-96.9575,9,0,-1,0,0,-0.641419281,-0.23069743,0.031450521, Normal, Normal, Normal,0.618245631,0.037510214,Central,Central
COOP:253659,HASTINGS MUNICIPAL AIRPORT NE US,597.7,40.6005,-98.4258,9,-78,-13,1,0,-1.631399072,0.097975406,-0.628073927, Cold, Normal, Normal,0.260433186,-0.072978683,Central,Central
COOP:244512,JOPLIN MT US,1012.9,48.5617,-110.767,9,-7,3,2,0,-0.311426018,0.991655573,-0.027737571, Normal, Normal, Normal,1.860779496,-1.001648283,North,West
COOP:144531,LARNED NUMBER 2 KS US,618.7,38.1923,-99.0968,9,0,0,8,0,-0.558920965,0.143175992,0.031450521, Normal, Normal, Normal,-0.223658908,-0.123471123,Central,Central
COOP:093675,GERMANY VALLEY GA US,863.2,34.9089,-83.4575,9,0,0,0,0,-0.558920965,0.669439963,0.031450521, Normal, Normal, Normal,-0.883682155,1.053378979,Central,East
COOP:021314,CASA GRANDE NATIONAL MNUMT AZ US,432.5,32.9947,-111.5367,9,169,15,26,0,0.678553773,-0.257602541,1.460420159, Normal, Normal, Wet,-1.268471246,-1.059567852,South,West
COOP:246862,RAPELJE MT US,1232.6,45.9716,-109.257,9,-32,-5,1,0,-0.971412545,1.464539804,-0.239123612, Normal, High, Normal,1.340122186,-0.88802148,North,Central
COOP:216547,PINE RIVER DAM MN US,381,46.66944,-94.10889,9,-138,11,0,0,0.34856051,-0.368451598,-1.135400426, Normal, Normal, Dry,1.480400746,0.251866801,North,Central
COOP:028590,TOHONO CHUL AZ US,770.2,32.3391,-110.9808,9,0,0,20,0,-0.558920965,0.469265938,0.031450521, Normal, Normal, Normal,-1.400258795,-1.017736634,South,West
COOP:426919,PLEASANT GROVE UT US,1436.2,40.3675,-111.7338,9,52,23,5,0,1.338540301,1.902770252,0.471133487, Warm, High, Normal,0.213595939,-1.074399536,Central,West
COOP:356750,PORTLAND NWSFO OR US,6.4,45.56056,-122.53806,9,-62,33,3,0,2.16352346,-1.174743965,-0.492786861, Very Warm, Low, Normal,1.257495654,-1.887415111,North,West
COOP:196486,PLYMOUTH KINGSTON MA US,13.7,41.982,-70.696,9,-200,21,4,0,1.173543669,-1.15903138,-1.659637808, Warm, Low, Dry,0.538139867,2.01367596,Central,Far East
COOP:356751,PORTLAND INTERNATIONAL AIRPORT OR US,5.8,45.5958,-122.6093,9,-49,31,4,0,1.998526828,-1.17603541,-0.38286612, Warm, Low, Normal,1.264579536,-1.892775888,North,West
COOP:253630,HARTINGTON NE US,417.6,42.6166,-97.2608,9,-77,0,0,0,-0.558920965,-0.289673433,-0.619618486, Normal, Normal, Normal,0.665706034,0.014687029,Central,Central
COOP:243013,FLATWILLOW 4 ENE MT US,1003.4,46.8217,-108.3724,9,0,0,0,0,-0.558920965,0.971207688,0.031450521, Normal, Normal, Normal,1.511007781,-0.821455739,North,Central
COOP:210112,ALEXANDRIA MUNICIPAL AIRPORT MN US,431.6,45.8679,-95.3941,9,-91,4,0,0,-0.228927702,-0.259539709,-0.737994669, Normal, Normal, Normal,1.319276596,0.155155342,North,Central
COOP:244545,JUDITH GAP 13 E MT US,1585.9,46.6501,-109.48,9,19,1,0,0,-0.476422649,2.224985861,0.192103912, Normal, Very High, Normal,1.476513053,-0.904802127,North,Central
COOP:508494,SITKA AIRPORT AK US,4.3,57.04806,-135.36472,9,-82,16,0,0,0.761052089,-1.179264024,-0.661895694, Normal, Low, Normal,3.566692538,-2.852615352,Far North,West
COOP:417300,PROCTOR RESERVOIR TX US,372.2,31.9633,-98.4941,9,72,14,12,0,0.596055457,-0.387392797,0.640242319, Normal, Normal, Normal,-1.475801445,-0.078118226,South,Central
COOP:356784,PORT ORFORD 2 OR US,12.8,42.7519,-124.5011,9,192,18,0,0,0.926048721,-1.160968548,1.654895317, Normal, Low, Wet,0.6929038,-2.035132964,Central,West
COOP:093621,GAINESVILLE GA US,356.6,34.3006,-83.86,9,-162,9,0,0,0.183563878,-0.420970375,-1.338331026, Normal, Normal, Dry,-1.005961543,1.02309104,South,East
COOP:446955,PULASKI VA US,563.9,37.0556,-80.7842,9,68,20,0,0,1.091045353,0.025223986,0.606420553, Warm, Normal, Normal,-0.452156327,1.254543569,Central,East
COOP:253615,HARRISON NE US,1478.3,42.6858,-103.8841,9,288,-11,1,0,-1.46640244,1.993386665,2.466617715, Cold, High, Very Wet,0.679616495,-0.483713237,Central,Central
COOP:244558,KALISPELL GLACIER PARK INTERNATIONAL AIRPORT MT US,901.3,48.3042,-114.2636,9,-24,9,0,0,0.183563878,0.751446742,-0.171480079, Normal, Normal, Normal,1.809017303,-1.264765818,North,West
COOP:253618,HARRISON 9 NE NE US,1228,42.8002,-103.7866,9,308,-3,3,0,-0.806415913,1.454638723,2.635726548, Normal, High, Very Wet,0.702612981,-0.476376407,Central,Central
COOP:253617,HARRISON 4 NW NE US,1546.3,42.7433,-103.9219,9,321,-4,2,1,-0.888914229,2.139750469,2.745647289, Normal, Very High, Very Wet,0.691175043,-0.486557669,Central,Central
COOP:260438,ARTHUR 4 NW NV US,1905,40.7808,-115.1853,9,56,26,0,0,1.586035248,2.911819535,0.504955253, Warm, Very High, Normal,0.296676773,-1.334123317,Central,West
COOP:456534,PLAIN WA US,590.1,47.7849,-120.6455,9,-8,20,0,0,1.091045353,0.081617098,-0.036193012, Warm, Normal, Normal,1.704628537,-1.745000845,North,West
COOP:470652,BELGIUM WWTP WI US,210.9,43.5136,-87.8547,9,0,0,0,0,-0.558920965,-0.734576349,0.031450521, Normal, Normal, Normal,0.846019384,0.72249171,Central,Central
COOP:244522,JORDAN MT US,798.6,47.3144,-106.9104,9,-50,-10,0,0,-1.383904124,0.53039435,-0.391321561, Cold, Normal, Normal,1.610049462,-0.711440914,North,Central
COOP:417327,PUTNAM TX US,496.8,32.3663,-99.1925,9,-131,13,12,0,0.513557142,-0.11920265,-1.076212335, Normal, Normal, Dry,-1.3947911,-0.130672504,South,Central
COOP:133718,HAWARDEN IA US,362.7,43.003,-96.485,9,-39,-5,0,0,-0.971412545,-0.407840681,-0.298311703, Normal, Normal, Normal,0.743379477,0.073065621,Central,Central
COOP:253605,HARRISBURG 12 WNW NE US,1386.8,41.633,-103.9541,9,89,9,4,0,0.183563878,1.796441253,0.783984827, Normal, High, Normal,0.467984506,-0.488980704,Central,Central
COOP:470645,BEAVER DAM WI US,256,43.4447,-88.8477,9,-166,-19,0,0,-2.126388967,-0.637502708,-1.372152792, Very Cold, Normal, Dry,0.832169228,0.647768918,Central,Central
COOP:503490,HAINES AIRPORT AK US,4.6,59.24333,-135.50944,9,311,16,0,0,0.761052089,-1.178618301,2.661092873, Normal, Low, Very Wet,4.007981822,-2.863505465,Far North,West
COOP:144589,LEAVENWORTH 3 SW KS US,265.5,39.2849,-94.95,9,0,0,3,0,-0.558920965,-0.617054824,0.031450521, Normal, Normal, Normal,-0.004026393,0.188573662,Central,Central
COOP:244538,JUDITH GAP MT US,1411.2,46.6786,-109.7535,9,0,0,0,0,-0.558920965,1.84896003,0.031450521, Normal, High, Normal,1.482242073,-0.925382876,North,Central
COOP:110993,BROOKPORT DAM 52 IL US,100.6,37.1275,-88.653,9,-199,2,4,0,-0.393924333,-0.971987048,-1.651182367, Normal, Normal, Dry,-0.437703117,0.662420003,Central,Central
COOP:445851,MOUNT WEATHER VA US,505.7,39.0643,-77.8883,9,-181,-7,0,0,-1.136409177,-0.100046211,-1.498984417, Cold, Normal, Dry,-0.048371014,1.472458707,Central,East
COOP:452157,DIABLO DAM WA US,271.6,48.7141,-121.143,9,-5,20,0,0,1.091045353,-0.60392513,-0.010826687, Warm, Normal, Normal,1.891414674,-1.78243749,North,West
COOP:094700,JONESBORO GA US,283.5,33.5312,-84.3545,9,-250,16,5,0,0.761052089,-0.578311464,-2.082409891, Normal, Normal, Very Dry,-1.160624967,0.985880143,South,Central
COOP:518407,PUUKOLII 457.1 HI US,128.3,20.9285,-156.6735,9,-55,-6,0,0,-1.053910861,-0.912365322,-0.43359877, Cold, Normal, Normal,-3.693997378,-4.456091205,Far South,Far West
COOP:342912,ENID OK US,379.5,36.4194,-97.8747,9,-57,6,7,0,-0.06393107,-0.371680212,-0.450509653, Normal, Normal, Normal,-0.580044123,-0.031508662,Central,Central
COOP:290983,BINGHAM 2 NE NM US,1691.9,33.9113,-106.3494,9,71,12,2,0,0.431058826,2.453141202,0.631786878, Normal, Very High, Normal,-1.084217939,-0.669225923,South,Central
COOP:503465,GULKANA AIRPORT AK US,476.1,62.1591,-145.4588,9,48,10,0,0,0.266062194,-0.163757514,0.43731172, Normal, Normal, Normal,4.594104738,-3.61219021,Far North,West
COOP:301413,CHEMUNG NY US,250.5,42.0025,-76.6384,9,0,0,0,0,-0.558920965,-0.649340957,0.031450521, Normal, Normal, Normal,0.542260741,1.566513104,Central,East
COOP:450176,ANACORTES WA US,6.1,48.5119,-122.6136,9,60,31,0,0,1.998526828,-1.175389688,0.53877702, Warm, Low, Normal,1.850768789,-1.893099461,North,West
COOP:503475,GUSTAVUS AK US,12.2,58.4111,-135.7089,9,81,16,0,0,0.761052089,-1.162259993,0.716341294, Normal, Low, Normal,3.840688423,-2.878514738,Far North,West
COOP:290992,BITTER LAKES WL REF NM US,1116.8,33.4594,-104.4041,9,275,-4,6,0,-0.888914229,1.215290855,2.356696974, Normal, High, Very Wet,-1.175058076,-0.522842997,South,Central
COOP:049325,VICTORVILLE PUMP PLANT CA US,871.1,34.5349,-117.3058,9,-15,20,23,0,1.091045353,0.686443994,-0.095381104, Warm, Normal, Normal,-0.958862972,-1.493689963,Central,West
COOP:355204,MAPLETON OR US,5.2,44.0366,-123.8627,9,-16,44,4,0,3.071004935,-1.177326856,-0.103836545, Very Warm, Low, Normal,0.951151917,-1.987093659,Central,West
COOP:245338,MALTA 7 E MT US,680,48.3939,-107.7285,9,45,17,2,0,0.843550405,0.275118657,0.411945395, Normal, Normal, Normal,1.827048638,-0.773002561,North,Central
COOP:215012,MAHNOMEN 1 W MN US,368.5,47.31722,-95.9675,9,0,0,0,0,-0.558920965,-0.395356709,0.031450521, Normal, Normal, Normal,1.610616333,0.112007257,North,Central
COOP:035186,NEWPORT AR US,69.5,35.6042,-91.2744,9,-220,-10,4,0,-1.383904124,-1.038926965,-1.828746641, Cold, Low, Dry,-0.743914182,0.465160864,Central,Central
COOP:244560,KALISPELL 9 NNE MT US,903.7,48.3094,-114.2522,9,0,0,0,0,-0.558920965,0.756612523,0.031450521, Normal, Normal, Normal,1.810062598,-1.263907973,North,West
COOP:418818,TAHOKA TX US,951,33.1713,-101.798,9,1027,-10,6,0,-1.383904124,0.858421463,8.715189092, Cold, Normal, Very Wet,-1.232971427,-0.326735175,South,Central
COOP:470696,BELOIT WI US,237.7,42.5038,-89.0311,9,-169,-22,0,0,-2.373883915,-0.676891791,-1.397519117, Very Cold, Normal, Dry,0.643031178,0.633968153,Central,Central
COOP:245334,MALTA MT US,689.5,48.3589,-107.8714,9,31,-7,1,0,-1.136409177,0.295566541,0.293569212, Cold, Normal, Normal,1.820013,-0.78375572,North,Central
COOP:161899,CLINTON 5 SE LA US,61,30.8177,-90.9733,9,6,15,8,0,0.678553773,-1.05722244,0.082183171, Normal, Low, Normal,-1.706087926,0.4878185,South,Central
COOP:355221,MARION FORKS FISH HATCHERY OR US,754.4,44.6125,-121.9486,9,-65,27,0,0,1.668533564,0.435257877,-0.518153186, Warm, Normal, Normal,1.066918314,-1.843058518,North,West
COOP:447985,SPERRYVILLE VA US,228.6,38.6553,-78.2272,9,-355,-4,0,0,-0.888914229,-0.696478712,-2.970231263, Normal, Normal, Very Dry,-0.130587469,1.446956638,Central,East
COOP:245340,MALTA 35 S MT US,794,47.8418,-107.9556,9,11,-15,1,0,-1.796395704,0.520493269,0.124460379, Cold, Normal, Normal,1.716066475,-0.790091731,North,Central
COOP:417388,RAINBOW TX US,197.5,32.2619,-97.7063,9,-252,16,16,0,0.761052089,-0.763418628,-2.099320774, Normal, Normal, Very Dry,-1.415777403,-0.01883664,South,Central
COOP:411880,COLETO CREEK RESERVOIR TX US,36,28.71556,-97.17417,9,-211,3,15,0,-0.311426018,-1.111032662,-1.752647666, Normal, Low, Dry,-2.128656382,0.021205897,Far South,Central
COOP:411889,COLLEGE STATION EASTERWOOD FIELD TX US,93,30.58917,-96.36472,9,339,6,18,0,-0.06393107,-0.988345356,2.897845239, Normal, Normal, Very Wet,-1.752026622,0.082116635,South,Central
COOP:424508,KANAB UT US,1493.5,37.0286,-112.5366,9,234,34,9,0,2.246021776,2.02610328,2.010023866, Very Warm, Very High, Very Wet,-0.457583819,-1.134809865,Central,West
COOP:409219,UNION CITY TN US,106.7,36.3925,-89.0317,9,-151,-13,1,0,-1.631399072,-0.958857354,-1.245321168, Cold, Normal, Dry,-0.585451514,0.633923003,Central,Central
COOP:478267,STURGEON BAY EXPERIMENTAL FAR WI US,213.1,44.8797,-87.3355,9,260,-8,0,0,-1.218907492,-0.729841049,2.229865349, Cold, Normal, Very Wet,1.120630384,0.76156127,North,Central
COOP:411875,COLEMAN TX US,527.6,31.828,-99.4338,9,-135,-9,11,0,-1.301405808,-0.052908457,-1.110034101, Cold, Normal, Dry,-1.502999211,-0.148830217,South,Central
COOP:035112,NASHVILLE AR US,121.9,33.9294,-93.8583,9,-237,-1,12,0,-0.641419281,-0.926140739,-1.972489149, Normal, Normal, Dry,-1.080579509,0.270723583,South,Central
COOP:121030,BROOKVILLE IN US,192,39.4239,-85.0128,9,-37,-10,2,0,-1.383904124,-0.775256877,-0.28140082, Cold, Normal, Normal,0.02391514,0.936343372,Central,Central
COOP:252560,EDISON NE US,646.2,40.2763,-99.7836,9,0,0,3,0,-0.558920965,0.202367236,0.031450521, Normal, Normal, Normal,0.195263077,-0.175152506,Central,Central
COOP:518422,PUUKOHOLA HEIAU 98.1 HI US,40.5,20.0256,-155.822,9,-23,53,4,0,3.813489778,-1.101346822,-0.163024637, Very Warm, Low, Normal,-3.875496735,-4.392016223,Far South,Far West
COOP:130753,BLOOMFIELD 1 WNW IA US,247.5,40.7597,-92.4394,9,8,-7,1,0,-1.136409177,-0.655798184,0.099094054, Cold, Normal, Normal,0.292435288,0.377495152,Central,Central
COOP:247448,SEELEY LAKE R S MT US,1249.7,47.2141,-113.5204,9,-98,7,1,0,0.018567246,1.501345996,-0.79718276, Normal, High, Normal,1.589887333,-1.208840361,North,West
COOP:342944,ERICK 4 E OK US,627.9,35.2164,-99.8628,9,-4,0,0,0,-0.558920965,0.162978154,-0.002371246, Normal, Normal, Normal,-0.82186905,-0.181112269,Central,Central
COOP:342948,ERICK 4 ESE MESONET OK US,602.9,35.2049,-99.8034,9,0,0,7,0,-0.558920965,0.109167932,0.031450521, Normal, Normal, Normal,-0.82418076,-0.176642447,Central,Central
COOP:010583,BAY MINETTE AL US,82.6,30.884,-87.7852,9,-341,20,11,0,1.091045353,-1.010730408,-2.85185508, Warm, Low, Very Dry,-1.692760418,0.727721553,South,Central
COOP:507421,POINT BAKER US,6.1,56.3511,-133.6263,9,0,0,0,0,-0.558920965,-1.175389688,0.031450521, Normal, Low, Normal,3.426590875,-2.72180005,Far North,West
COOP:247540,SHONKIN 7 S MT US,1310.6,47.5319,-110.5769,9,-53,-8,0,0,-1.218907492,1.632427696,-0.416687886, Cold, High, Normal,1.653770926,-0.987343346,North,Central
COOP:411956,CONROE TX US,74.7,30.3302,-95.4831,9,196,15,13,0,0.678553773,-1.027734438,1.688717084, Normal, Low, Wet,-1.804084312,0.148458133,South,Central
COOP:472842,FOND DU LAC 2 SW WI US,242.3,43.7666,-88.4669,9,0,0,0,0,-0.558920965,-0.66699071,0.031450521, Normal, Normal, Normal,0.896876995,0.676423943,Central,Central
COOP:137700,SIOUX CENTER 2 SE IA US,414.5,43.0558,-96.1525,9,-90,-9,0,0,-1.301405808,-0.296345901,-0.729539227, Cold, Normal, Normal,0.753993239,0.098086092,Central,Central
COOP:137702,SIOUX CITY ANG IA US,335.3,42.3963,-96.3777,9,0,0,0,0,-0.558920965,-0.466816684,0.031450521, Normal, Normal, Normal,0.621421719,0.081139896,Central,Central
COOP:418862,TAYLOR 1 NW TX US,174,30.5844,-97.4156,9,618,12,17,0,0.431058826,-0.814000237,5.256913458, Normal, Normal, Very Wet,-1.752985479,0.003038401,South,Central
COOP:137708,SIOUX CITY GATEWAY AIRPORT IA US,333.8,42.3913,-96.3791,9,-17,9,1,0,0.183563878,-0.470045298,-0.112291987, Normal, Normal, Normal,0.620416627,0.081034547,Central,Central
COOP:355162,MALHEUR REFUGE HEADQUARTERS OR US,1255.2,43.265,-118.8447,9,0,0,0,0,-0.558920965,1.513184244,0.031450521, Normal, High, Normal,0.796046253,-1.609491477,Central,West
COOP:411968,COOPER DAM TX US,141.1,33.3191,-95.6038,9,0,0,13,0,-0.558920965,-0.884814489,0.031450521, Normal, Normal, Normal,-1.203260933,0.139375514,South,Central
COOP:472851,FORESTVILLE 4 E WI US,210.3,44.69972,-87.39667,9,186,-11,0,0,-1.46640244,-0.735867794,1.604162667, Cold, Normal, Wet,1.084451123,0.756958256,North,Central
COOP:020287,ANVIL RANCH AZ US,840.9,31.9793,-111.3837,9,-22,5,17,0,-0.146429386,0.621441245,-0.154569195, Normal, Normal, Normal,-1.472585154,-1.048054673,South,West
COOP:353038,FOSSIL OR US,807.7,44.9984,-120.2176,9,-33,-29,0,0,-2.951372127,0.549981271,-0.247579053, Very Cold, Normal, Normal,1.144491247,-1.712801568,North,West
COOP:020288,APACHE JUNCTION 5 NE AZ US,630.9,33.4625,-111.4813,9,476,13,25,0,0.513557142,0.169435381,4.056240745, Normal, Normal, Very Wet,-1.174434919,-1.055399028,South,West
COOP:132203,DES MOINES INTERNATIONAL AIRPORT IA US,291.7,41.5338,-93.653,9,118,1,1,0,-0.476422649,-0.560661711,1.029192635, Normal, Normal, Wet,0.448043498,0.286172313,Central,Central
COOP:132209,DES MOINES WSFO JOHNSTON IA US,292.3,41.7366,-93.7236,9,145,-27,0,0,-2.786375495,-0.559370266,1.25748956, Very Cold, Normal, Wet,0.488809994,0.280859695,Central,Central
COOP:454338,LACROSSE WA US,449.9,46.8167,-117.883,9,-37,31,6,0,1.998526828,-0.220150627,-0.28140082, Warm, Normal, Normal,1.51000269,-1.537123996,North,West
COOP:472869,FORT ATKINSON WI US,243.8,42.905,-88.8588,9,-135,-8,0,0,-1.218907492,-0.663762097,-1.110034101, Cold, Normal, Dry,0.723679691,0.646933649,Central,Central
COOP:368308,SOUTH MOUNTAIN PA US,463.3,39.8582,-77.4774,9,-231,-7,0,0,-1.136409177,-0.191308348,-1.921756499, Cold, Normal, Dry,0.111217356,1.503378742,Central,East
COOP:411974,COPE RANCH TX US,755.9,31.5333,-101.2842,9,-133,14,9,0,0.596055457,0.438486491,-1.093123218, Normal, Normal, Dry,-1.562239283,-0.288071963,South,Central
COOP:353047,FOSTER DAM OR US,167.6,44.4139,-122.6728,9,-18,40,7,0,2.741011671,-0.827775653,-0.120747429, Very Warm, Normal, Normal,1.026996094,-1.897554234,North,West
COOP:339299,WOODSFIELD 2 N OH US,365.8,39.7787,-81.1009,9,0,0,0,0,-0.558920965,-0.401168213,0.031450521, Normal, Normal, Normal,0.095236407,1.23071204,Central,East
COOP:348992,TULSA INTERNATIONAL AIRPORT OK US,198.1,36.1994,-95.8872,9,-206,8,7,0,0.101065562,-0.762127183,-1.710370458, Normal, Normal, Dry,-0.624268133,0.118049795,Central,Central
COOP:205452,MILFORD GM PROVING GROUND MI US,301.8,42.5794,-83.6844,9,-62,2,1,0,-0.393924333,-0.538922382,-0.492786861, Normal, Normal, Normal,0.658228156,1.036304859,Central,East
COOP:205451,MILAN WWTP MI US,207.3,42.0811,-83.6769,9,28,-26,0,0,-2.703877179,-0.742325021,0.268202887, Very Cold, Normal, Normal,0.558060773,1.03686923,Central,East
COOP:252595,ELGIN NE US,589.8,41.9872,-98.0747,9,-78,-1,0,0,-0.641419281,0.080971376,-0.628073927, Normal, Normal, Normal,0.539185162,-0.04655857,Central,Central
COOP:049298,VERDI 2 W CA US,1654.8,39.5214,-120.0269,9,0,0,0,0,-0.558920965,2.373286833,0.031450521, Normal, Very High, Normal,0.043514417,-1.698451481,Central,West
COOP:143008,GARNETT 1 E KS US,305.1,38.28,-95.2177,9,42,-12,3,0,-1.548900756,-0.531819432,0.38657907, Cold, Normal, Normal,-0.20602961,0.16842936,Central,Central
COOP:343740,GREAT SALT PLAINS DAM OK US,365.8,36.7425,-98.133,9,-186,0,0,0,-0.558920965,-0.401168213,-1.541261625, Normal, Normal, Dry,-0.515095134,-0.050945618,Central,Central
COOP:267463,SILVERPEAK NV US,1302.7,37.7617,-117.5658,9,3,47,19,0,3.318499882,1.615423666,0.056816846, Very Warm, High, Normal,-0.310217357,-1.513254843,Central,West
COOP:247500,SHELBY MT US,1013.5,48.5041,-111.8552,9,-47,-2,2,0,-0.723917597,0.992947018,-0.365955236, Normal, Normal, Normal,1.849200846,-1.08353483,North,West
COOP:411911,COLUMBUS TX US,68.6,29.699,-96.573,9,-11,25,20,0,1.503536932,-1.040864133,-0.061559337, Warm, Low, Normal,-1.930967017,0.066443661,South,Central
COOP:472889,FOXBORO WI US,284.1,46.4856,-92.2875,9,-44,-5,0,0,-0.971412545,-0.577020019,-0.340588911, Normal, Normal, Normal,1.443445555,0.388925557,North,Central
COOP:452064,DEER PARK AIRPORT WA US,667.8,47.97417,-117.42833,9,-35,31,0,0,1.998526828,0.248859268,-0.264489937, Warm, Normal, Normal,1.742675257,-1.502910289,North,West
COOP:167691,RAYVILLE LA US,27.1,32.4936,-91.7486,9,-174,25,14,0,1.503536932,-1.130189101,-1.439796325, Warm, Low, Dry,-1.369201479,0.429477533,South,Central
COOP:035079,MURFREESBORO 1 W AR US,140.2,34.0784,-93.702,9,135,4,5,0,-0.228927702,-0.886751657,1.172935143, Normal, Normal, Wet,-1.050627793,0.282485085,South,Central
COOP:155243,MAYSVILLE SEWAGE PLANT KY US,157,38.6869,-83.7872,9,-140,-1,3,0,-0.641419281,-0.850591188,-1.152311309, Normal, Normal, Dry,-0.124235293,1.028569206,Central,East
COOP:205434,MIDLAND MI US,195.1,43.6088,-84.2011,9,1,-11,0,0,-1.46640244,-0.768584409,0.039905963, Cold, Normal, Normal,0.865156319,0.997423422,Central,Central
COOP:193624,HINGHAM MA US,10.7,42.2269,-70.9125,9,-272,19,3,0,1.008547037,-1.165488607,-2.268429607, Warm, Low, Very Dry,0.587369231,1.997384435,Central,East
COOP:355139,MADRAS OR US,679.7,44.6166,-121.001,9,-11,10,0,0,0.266062194,0.274472934,-0.061559337, Normal, Normal, Normal,1.067742488,-1.771752056,North,West
COOP:511492,HILO INTERNATIONAL AIRPORT HI US,11.6,19.7191,-155.053,9,-590,32,4,0,2.081025144,-1.163551439,-4.95726005, Very Warm, Low, Very Dry,-3.937108822,-4.334149329,Far South,Far West
COOP:095874,MILLEDGEVILLE GA US,112.2,33.0831,-83.2498,9,52,22,11,0,1.256041985,-0.947019105,0.471133487, Warm, Normal, Normal,-1.250701234,1.069008308,South,East
COOP:115079,LINCOLN IL US,177.7,40.1513,-89.338,9,441,-22,2,0,-2.373883915,-0.806036324,3.760300287, Very Cold, Normal, Very Wet,0.170135799,0.61087407,Central,Central
COOP:411934,CONCHO PARK IVIE RESERVOIR TX US,480.1,31.5514,-99.7081,9,-109,4,12,0,-0.228927702,-0.155147878,-0.890192618, Normal, Normal, Normal,-1.558600853,-0.169471166,South,Central
COOP:291664,CHAMA NM US,2392.7,36.9177,-106.578,9,-106,42,0,0,2.906008303,3.961549345,-0.864826294, Very Warm, Very High, Normal,-0.479876741,-0.686427968,Central,Central
COOP:088368,SOUTH BAY 15 S FL US,6.1,26.47,-80.6402,9,28,-7,8,0,-1.136409177,-1.175389688,0.268202887, Cold, Low, Normal,-2.580054872,1.265379503,Far South,East
COOP:294960,LINDRITH 1 WSW NM US,2200.7,36.3041,-107.0541,9,-53,54,0,0,3.895988094,3.54828684,-0.416687886, Very Warm, Very High, Normal,-0.603221525,-0.722254273,Central,Central
COOP:208202,TIPTON 2 WNW MI US,295.7,42.0283,-84.1108,9,22,-8,1,0,-1.218907492,-0.552052076,0.217470237, Cold, Normal, Normal,0.547447011,1.004218456,Central,East
COOP:355142,MADRAS 2 N OR US,744.6,44.6634,-121.146,9,0,0,0,0,-0.558920965,0.41416427,0.031450521, Normal, Normal, Normal,1.077150141,-1.782663239,North,West
COOP:010505,BANKHEAD LOCK AND DAM AL US,85.3,33.4527,-87.3572,9,-263,30,11,0,1.916028512,-1.004918904,-2.192330632, Warm, Low, Very Dry,-1.176404898,0.759928355,South,Central
COOP:115097,LISLE MORTON ARBORETUM IL US,207.3,41.8127,-88.0727,9,-38,-10,0,0,-1.383904124,-0.742325021,-0.289856262, Cold, Normal, Normal,0.504107481,0.70608731,Central,Central
COOP:343707,GRANDFIELD 3 W MESONET OK US,342,34.2392,-98.7444,9,0,0,12,0,-0.558920965,-0.452395545,0.031450521, Normal, Normal, Normal,-1.018304062,-0.096953186,South,Central
COOP:340755,BILLINGS OK US,304.8,36.5297,-97.4472,9,-112,12,12,0,0.431058826,-0.532465155,-0.915558943, Normal, Normal, Normal,-0.557871813,0.000660515,Central,Central
COOP:290915,BERNARDO NM US,1443.2,34.4219,-106.8325,9,6,24,4,0,1.421038617,1.917837114,0.082183171, Warm, High, Normal,-0.981578032,-0.705578975,Central,Central
COOP:353014,FORT CLATSOP NATIONAL MONUMENT OR US,12.8,46.1358,-123.8783,9,229,23,0,0,1.338540301,-1.160968548,1.967746658, Warm, Low, Wet,1.373129379,-1.988267552,North,West
COOP:130807,BOONE IA US,320.3,42.0416,-93.8905,9,229,-12,0,0,-1.548900756,-0.499102817,1.967746658, Cold, Normal, Wet,0.550120553,0.268300548,Central,Central
COOP:155280,MCDANIELS KY US,129.5,37.6497,-86.4308,9,0,-20,0,0,-2.208887283,-0.909782432,0.031450521, Very Cold, Normal, Normal,-0.332731398,0.829639527,Central,Central
COOP:116157,NEWTON IL US,167.6,38.9916,-88.1828,9,434,-26,1,0,-2.703877179,-0.827775653,3.701112195, Very Cold, Normal, Very Wet,-0.062985039,0.697802336,Central,Central
COOP:291647,CHACO CANYON NATIONAL MON NM US,1881.8,36.0286,-107.9106,9,52,19,3,0,1.008547037,2.861883649,0.471133487, Warm, Very High, Normal,-0.658602046,-0.786705502,Central,Central
COOP:260507,AUSTIN NUMBER 2 NV US,2066.5,39.493,-117.0675,9,112,46,0,0,3.236001566,3.259433569,0.978459985, Very Warm, Very High, Normal,0.0378055,-1.475757998,Central,West
COOP:259200,WEST POINT NE US,399.3,41.845,-96.7141,9,-7,-3,0,0,-0.806415913,-0.329062516,-0.027737571, Normal, Normal, Normal,0.51060037,0.055825952,Central,Central
COOP:291630,CERRO NM US,2331.7,36.7408,-105.5955,9,-136,47,0,0,3.318499882,3.830252404,-1.118489543, Very Warm, Very High, Dry,-0.515436865,-0.612495296,Central,Central
COOP:231580,CHILLICOTHE 2 S MO US,237.7,39.775,-93.5357,9,28,0,1,0,-0.558920965,-0.676891791,0.268202887, Normal, Normal, Normal,0.09449264,0.294999084,Central,Central
COOP:458773,VANCOUVER 4 NNE WA US,64,45.6778,-122.651,9,-55,20,2,0,1.091045353,-1.050765213,-0.43359877, Warm, Low, Normal,1.281063031,-1.895913794,North,West
COOP:457247,SAGEMOOR WA US,181.4,46.39528,-119.07111,9,0,0,0,0,-0.558920965,-0.798072411,0.031450521, Normal, Normal, Normal,1.425289589,-1.626528725,North,West
COOP:080992,BRIGHTON RESERVATION FL US,4.3,27.0436,-81.0701,9,-86,-8,19,0,-1.218907492,-1.179264024,-0.695717461, Cold, Low, Normal,-2.464750817,1.233029726,Far South,East
COOP:339219,WILMINGTON 3 N OH US,313.9,39.48333,-83.85,9,-56,-7,0,0,-1.136409177,-0.512878234,-0.442054211, Cold, Normal, Normal,0.035861653,1.023843535,Central,East
COOP:347862,SALLISAW 2 NW OK US,201.2,35.4572,-94.8047,9,-55,0,0,0,-0.558920965,-0.755454715,-0.43359877, Normal, Normal, Normal,-0.773463861,0.19950742,Central,Central
COOP:208249,TRAVERSE CITY MUNSON MI US,193.5,44.7607,-85.6443,9,312,-8,0,0,-1.218907492,-0.772028263,2.669548315, Cold, Normal, Very Wet,1.096709215,0.888823289,North,Central
COOP:032540,FORDYCE AR US,70.1,33.82278,-92.39889,9,-139,12,5,0,0.431058826,-1.037635519,-1.143855868, Normal, Low, Dry,-1.102012072,0.380543511,South,Central
COOP:154138,INEZ 2 E KY US,216.4,37.8725,-82.5195,9,8,4,0,0,-0.228927702,-0.7227381,0.099094054, Normal, Normal, Normal,-0.287944537,1.123963046,Central,East
COOP:095863,MIDVILLE EXPERIMENT STATION GA US,85.3,32.87528,-82.21556,9,36,15,9,0,0.678553773,-1.004918904,0.33584642, Normal, Low, Normal,-1.292476842,1.14683439,South,East
COOP:132299,DONNELLSON IA US,214.9,40.6458,-91.564,9,8,-3,1,0,-0.806415913,-0.725966713,0.099094054, Normal, Normal, Normal,0.269539312,0.443368598,Central,Central
COOP:422385,ECHO DAM UT US,1665.7,40.9656,-111.435,9,227,42,0,0,2.906008303,2.39674809,1.950835775, Very Warm, Very High, Wet,0.333824941,-1.051914974,Central,West
COOP:043083,FIVE POINTS 5 SSW CA US,86.9,36.3642,-120.1561,9,-21,48,24,0,3.400998198,-1.00147505,-0.146113754, Very Warm, Low, Normal,-0.591140329,-1.708173721,Central,West
COOP:456610,POMEROY WA US,589.5,46.4672,-117.5883,9,-28,16,0,0,0.761052089,0.080325653,-0.205301845, Normal, Normal, Normal,1.439746819,-1.514947957,North,West
COOP:028619,TOMBSTONE AZ US,1420.1,31.7119,-110.0686,9,374,15,9,0,0.678553773,1.868116469,3.193785697, Normal, High, Very Wet,-1.526337428,-0.949094005,South,Central
COOP:143074,GIRARD KS US,300.2,37.508,-94.8391,9,-65,4,5,0,-0.228927702,-0.542366236,-0.518153186, Normal, Normal, Normal,-0.361215681,0.196918836,Central,Central
COOP:080945,BRADENTON FL US,6.1,27.4467,-82.5014,9,678,3,20,0,-0.311426018,-1.175389688,5.764239957, Normal, Low, Very Wet,-2.38372037,1.125325062,Far South,East
COOP:253690,HAYES CENTER NE US,928.1,40.5232,-101.0345,9,-56,-3,3,0,-0.806415913,0.8091313,-0.442054211, Normal, Normal, Normal,0.244894477,-0.269282153,Central,Central
COOP:210075,ALBERT LEA 3 SE MN US,374.9,43.6064,-93.3019,9,-31,1,0,0,-0.476422649,-0.381581293,-0.23066817, Normal, Normal, Normal,0.864673875,0.312592426,Central,Central
COOP:138806,WEBSTER CITY IA US,356.6,42.4686,-93.7972,9,136,-15,0,0,-1.796395704,-0.420970375,1.181390585, Cold, Normal, Wet,0.635955336,0.275321329,Central,Central
COOP:508528,SKAGWAY AIRPORT AK US,6.1,59.45556,-135.32389,9,70,22,0,0,1.256041985,-1.175389688,0.623331436, Warm, Low, Normal,4.05064392,-2.849542913,Far North,West
COOP:508525,SKAGWAY AK US,10.7,59.4547,-135.3136,9,0,0,0,0,-0.558920965,-1.165488607,0.031450521, Normal, Low, Normal,4.050471045,-2.848768596,Far North,West
COOP:032574,FORT SMITH REGIONAL AIRPORT AR US,136.9,35.333,-94.3625,9,285,6,7,0,-0.06393107,-0.893854606,2.44125139, Normal, Normal, Very Wet,-0.798430325,0.232782766,Central,Central
COOP:249900,ZORTMAN MT US,1229.9,47.9185,-108.5244,9,86,4,0,0,-0.228927702,1.4587283,0.758618503, Normal, High, Normal,1.731484573,-0.832893669,North,Central
COOP:166584,NATCHITOCHES NUMBER 2 LA US,43,31.8142,-93.0856,9,-316,-11,9,0,-1.46640244,-1.0959658,-2.640469039, Cold, Low, Very Dry,-1.505773263,0.328868901,South,Central
COOP:137726,SIOUX RAPIDS 4 E IA US,432.8,42.893,-95.0652,9,-45,-14,0,0,-1.713897388,-0.256956818,-0.349044353, Cold, Normal, Normal,0.721267472,0.179904915,Central,Central
COOP:472826,FLORENCE WI US,396.2,45.9336,-88.2583,9,277,4,0,0,-0.228927702,-0.335734983,2.373607857, Normal, Normal, Very Wet,1.332483493,0.692120996,North,Central
COOP:242347,DENTON MT US,1100.3,47.3181,-109.9372,9,62,-5,2,0,-0.971412545,1.179776109,0.555687903, Normal, High, Normal,1.610793229,-0.939206216,North,Central
COOP:210050,AGASSIZ REFUGE MN US,348.1,48.3005,-95.9816,9,0,0,0,0,-0.558920965,-0.439265851,0.031450521, Normal, Normal, Normal,1.808273535,0.110946238,North,Central
COOP:458715,UPPER BAKER DAM WA US,210.3,48.6524,-121.693,9,61,21,1,0,1.173543669,-0.735867794,0.547232461, Warm, Normal, Normal,1.879011849,-1.823824736,North,West
COOP:021353,CASTLE HOT SPRINGS AZ US,606.6,33.9825,-112.3616,9,162,6,26,0,-0.06393107,0.117131845,1.401232068, Normal, Normal, Wet,-1.069905441,-1.121641196,South,West
COOP:341404,CAMARGO 4 WNW MESONET OK US,588.9,36.02861,-99.34639,9,0,0,8,0,-0.558920965,0.079034208,0.031450521, Normal, Normal, Normal,-0.658600036,-0.142252655,Central,Central
COOP:021357,CATALINA STATE PARK AZ US,825.1,32.4177,-110.9302,9,0,8,21,0,0.101065562,0.587433185,0.031450521, Normal, Normal, Normal,-1.384458763,-1.013929007,South,West
COOP:457267,SAINT JOHN WA US,595,47.0933,-117.5878,9,-42,39,1,0,2.658513355,0.092163902,-0.323678028, Very Warm, Normal, Normal,1.565604332,-1.514910333,North,West
COOP:472839,FOND DU LAC WI US,231.6,43.7952,-88.4533,9,-196,-13,0,0,-1.631399072,-0.690021485,-1.625816042, Cold, Normal, Dry,0.902626117,0.677447336,Central,Central
COOP:210059,AITKIN MN US,370.3,46.5257,-93.6674,9,16,18,0,0,0.926048721,-0.391482373,0.166737587, Normal, Normal, Normal,1.451506386,0.285088719,North,Central
COOP:472836,FOND DU LAC CO AIRPORT WI US,246,43.76944,-88.49083,9,-176,-22,0,0,-2.373883915,-0.659026797,-1.456707209, Very Cold, Normal, Dry,0.897447887,0.674623221,Central,Central
COOP:095811,METTER GA US,36.6,32.39722,-82.08194,9,0,0,0,0,-0.558920965,-1.109741217,0.031450521, Normal, Low, Normal,-1.388575616,1.156889234,South,East
COOP:216228,ORWELL DAM MN US,329.2,46.2147,-96.1783,9,-229,0,0,0,-0.558920965,-0.479946378,-1.904845616, Normal, Normal, Dry,1.388989717,0.096144654,North,Central
COOP:231600,CLARENCE CANNON DAM MO US,214,39.5253,-91.645,9,36,0,1,0,-0.558920965,-0.727903881,0.33584642, Normal, Normal, Normal,0.044298388,0.437273385,Central,Central
COOP:121326,CASTLETON 2 S IN US,250.5,39.8801,-86.0514,9,0,0,1,0,-0.558920965,-0.649340957,0.031450521, Normal, Normal, Normal,0.115619655,0.858189202,Central,Central
COOP:417206,POST TX US,795.8,33.19861,-101.37444,9,577,-7,8,0,-1.136409177,0.524367605,4.910240351, Cold, Normal, Very Wet,-1.227481619,-0.294862481,South,Central
COOP:409155,TULLAHOMA TN US,311.5,35.34528,-86.20889,9,-139,15,0,0,0.678553773,-0.518044016,-1.143855868, Normal, Normal, Dry,-0.795961821,0.846338152,Central,Central
COOP:508584,SNETTISHAM POWER PLANT AK US,8.8,58.1421,-133.7385,9,0,0,0,0,-0.558920965,-1.169578184,0.031450521, Normal, Low, Normal,3.78661452,-2.730243048,Far North,West
COOP:366151,NATRONA LOCK 4 PA US,231.6,40.61417,-79.71917,9,0,0,0,0,-0.558920965,-0.690021485,0.031450521, Normal, Normal, Normal,0.263181105,1.334686585,Central,East
COOP:470773,BIG FALLS HYDRO WI US,371.9,45.5556,-90.9592,9,185,-5,0,0,-0.971412545,-0.388038519,1.595707226, Normal, Normal, Wet,1.256498604,0.488879519,North,Central
COOP:368184,SLIPPERY ROCK PA US,381,41.05583,-80.06,9,-231,36,2,0,2.411018407,-0.368451598,-1.921756499, Very Warm, Normal, Dry,0.351962816,1.309039285,Central,East
COOP:204090,IRON MOUNTAIN KINGSFORD WASTEWATER TREATMENT PLANT MI US,326.4,45.7858,-88.0841,9,292,-1,0,0,-0.641419281,-0.485973123,2.500439482, Normal, Normal, Very Wet,1.302773,0.705229466,North,Central
COOP:289363,WERTSVILLE 4 NE NJ US,73.2,40.4528,-74.808,9,-311,16,2,0,0.761052089,-1.030963052,-2.598191831, Normal, Low, Very Dry,0.230742794,1.704249859,Central,East
COOP:283662,HAMMONTON 1 NE NJ US,27.4,39.6442,-74.8072,9,119,9,4,0,0.183563878,-1.129543378,1.037648077, Normal, Low, Wet,0.068199456,1.704310059,Central,East
COOP:471897,CRIVITZ HIGH FALLS WI US,289.6,45.3575,-88.1919,9,151,0,0,0,-0.558920965,-0.56518177,1.30822221, Normal, Normal, Wet,1.216676893,0.697117566,North,Central
COOP:302610,ELMIRA NY US,288.6,42.0997,-76.8358,9,-121,2,0,0,-0.393924333,-0.567334179,-0.991657918, Normal, Normal, Normal,0.561799712,1.551658846,Central,East
COOP:416135,MULESHOE NUMBER 1 TX US,1167.4,34.21917,-102.73278,9,476,2,5,0,-0.393924333,1.324202745,4.056240745, Normal, High, Very Wet,-1.022330457,-0.397076939,South,Central
COOP:121303,CARMEL 3 E IN US,225.6,39.9613,-86.0586,9,59,-20,1,0,-2.208887283,-0.702935938,0.530321578, Very Cold, Normal, Normal,0.131942336,0.857647405,Central,Central
COOP:416137,MULESHOE NWR TX US,1140,33.95444,-102.77833,9,458,-11,6,0,-1.46640244,1.265226741,3.904042795, Cold, High, Very Wet,-1.075546012,-0.400504555,South,Central
COOP:197627,SOUTHBRIDGE 3 SW MA US,208.8,42.0583,-72.0721,9,-271,0,0,0,-0.558920965,-0.739096408,-2.259974165, Normal, Normal, Very Dry,0.553477558,1.91012507,Central,East
COOP:243378,GARDINER MT US,1607.8,45.0316,-110.7036,9,108,19,0,0,1.008547037,2.272123615,0.944638219, Warm, Very High, Normal,1.151165053,-0.996877462,North,Central
COOP:450482,BATTLE GROUND WA US,86.6,45.77167,-122.52861,9,-64,24,4,0,1.421038617,-1.002120773,-0.509697744, Warm, Low, Normal,1.299932612,-1.886704003,North,West
COOP:341706,CHATTANOOGA 3 NE OK US,349.9,34.4224,-98.6496,9,-231,0,0,0,-0.558920965,-0.435391515,-1.921756499, Normal, Normal, Dry,-0.981477523,-0.089819529,Central,Central
COOP:502015,CLEAR SKY AK US,196.9,64.24528,-149.18278,9,0,0,0,0,-0.558920965,-0.764710073,0.031450521, Normal, Normal, Normal,5.013464943,-3.892417985,Far North,West
COOP:367029,PLEASANT MOUNT 1 W PA US,548.6,41.7394,-75.4465,9,-340,14,0,0,0.596055457,-0.00770787,-2.843399639, Normal, Normal, Very Dry,0.489372845,1.656203029,Central,East
COOP:477092,REST LAKE WI US,491.3,46.1222,-89.8772,9,41,0,0,0,-0.558920965,-0.131040899,0.378123628, Normal, Normal, Normal,1.370395531,0.570299519,North,Central
COOP:339312,WOOSTER EXPERIMENTAL STATION OH US,310.9,40.7833,-81.9167,9,-244,-1,0,0,-0.641419281,-0.519335461,-2.031677241, Normal, Normal, Very Dry,0.297179318,1.169323467,Central,East
COOP:233838,HIGGINSVILLE MO US,254.8,39.0733,-93.7075,9,-243,-12,1,0,-1.548900756,-0.640085599,-2.023221799, Cold, Normal, Very Dry,-0.04656185,0.282071213,Central,Central
COOP:461397,CANAAN VALLEY NUMBER 2 WV US,991.8,39.0483,-79.4406,9,-115,26,0,0,1.586035248,0.946239745,-0.940925268, Warm, Normal, Normal,-0.051587306,1.355648849,Central,East
COOP:028214,STEWART MOUNTAIN AZ US,433.4,33.5575,-111.5358,9,355,0,15,0,-0.558920965,-0.255665373,3.033132305, Normal, Normal, Very Wet,-1.155338188,-1.059500128,South,West
COOP:470742,BERLIN WWTP WI US,233.5,43.99,-88.9411,9,-166,-6,0,0,-1.053910861,-0.685931908,-1.372152792, Cold, Normal, Dry,0.941784467,0.640740612,Central,Central
COOP:425733,MOAB UT US,1235.4,38.5744,-109.5458,9,187,29,17,0,1.833530196,1.470566549,1.612618109, Warm, High, Wet,-0.146849844,-0.909753547,Central,Central
COOP:509313,TOK AK US,495.3,63.3337,-143.0372,9,104,-10,0,0,-1.383904124,-0.122431263,0.910816452, Cold, Normal, Normal,4.830220748,-3.429965928,Far North,West
COOP:509314,TOK NUMBER 2 AK US,505.4,63.31556,-143.00583,9,0,0,0,0,-0.558920965,-0.100691934,0.031450521, Normal, Normal, Normal,4.826574277,-3.42760535,Far North,West
COOP:366194,NESHAMINY FALLS PA US,18.3,40.1358,-74.955,9,-302,7,3,0,0.018567246,-1.149130299,-2.522092856, Normal, Low, Very Dry,0.167020016,1.693188177,Central,East
COOP:231640,CLARKSVILLE LOCK AND DAM 24 MO US,140.2,39.373,-90.9052,9,64,-9,3,0,-1.301405808,-0.886751657,0.572598786, Cold, Normal, Normal,0.013683312,0.492942994,Central,Central
COOP:503160,FORT KNOX MINE AK US,494.1,65.0033,-147.3408,9,183,11,0,1,0.34856051,-0.125014154,1.578796342, Normal, Normal, Wet,5.16584078,-3.753809841,Far North,West
COOP:341726,CHEROKEE 1 SSW MESONET OK US,361.8,36.7481,-98.3627,9,0,0,10,0,-0.558920965,-0.409777849,0.031450521, Normal, Normal, Normal,-0.513969432,-0.068230437,Central,Central
COOP:503163,FORT RICHARDSON W.T.P. AK US,143.3,61.2272,-149.6504,9,0,0,0,0,-0.558920965,-0.880079189,0.031450521, Normal, Normal, Normal,4.406775852,-3.927606174,Far North,West
COOP:503181,FOX 2 SE AK US,236.2,64.9591,-147.6261,9,150,-12,0,0,-1.548900756,-0.680120404,1.299766768, Cold, Normal, Wet,5.156955774,-3.775278534,Far North,West
COOP:423600,HANS FLAT RANGER STATION UT US,2011.7,38.2553,-110.18,9,91,33,0,0,2.16352346,3.141481562,0.800895711, Very Warm, Very High, Normal,-0.21099476,-0.957476804,Central,Central
COOP:356634,PILOT ROCK 1 SE OR US,524.3,45.4756,-118.8253,9,0,0,0,0,-0.558920965,-0.060011406,0.031450521, Normal, Normal, Normal,1.240417145,-1.608031636,North,West
COOP:508536,SKWENTNA AK US,45.7,61.9772,-151.2169,9,0,0,0,0,-0.558920965,-1.090154296,0.031450521, Normal, Low, Normal,4.557539523,-4.045484575,Far North,West
COOP:093325,FARGO 17 NE GA US,37.8,30.8264,-82.3606,9,1013,3,11,0,-0.311426018,-1.107158326,8.596812909, Normal, Low, Very Wet,-1.704339068,1.135920197,South,East
COOP:290692,AZTEC RUINS NATIONAL MONUMENT NM US,1720.3,36.835,-108.0005,9,59,60,14,0,4.390977989,2.514269614,0.530321578, Very Warm, Very High, Normal,-0.496500948,-0.793470436,Central,Central
COOP:416177,NACOGDOCHES TX US,132.6,31.6163,-94.643,9,45,-1,8,0,-0.641419281,-0.903109964,0.411945395, Normal, Normal, Normal,-1.54555477,0.21167527,South,Central
COOP:035200,NIMROD DAM AR US,146.3,34.9553,-93.1594,9,-26,16,8,0,0.761052089,-0.873621963,-0.188390962, Normal, Normal, Normal,-0.87435491,0.323315485,Central,Central
COOP:341745,CHICKASAW NRA OK US,321.6,34.5019,-96.9718,9,-250,13,11,0,0.513557142,-0.496304686,-2.082409891, Normal, Normal, Very Dry,-0.965496574,0.036434146,Central,Central
COOP:341743,CHEYENNE 6 SW MESONET OK US,694,35.5462,-99.7279,9,0,0,6,0,-0.558920965,0.305252381,0.031450521, Normal, Normal, Normal,-0.755573239,-0.170961106,Central,Central
COOP:450456,BARING WA US,234.7,47.7722,-121.4819,9,-41,25,1,0,1.503536932,-0.683349018,-0.315222587, Warm, Normal, Normal,1.702075606,-1.807939559,North,West
COOP:422090,DELTA UT US,1450.5,39.38333,-112.51667,9,164,15,2,0,0.678553773,1.933549699,1.418142951, Normal, High, Wet,0.015759831,-1.133310142,Central,West
COOP:341750,CHICKASHA EXPERIMENT STATION OK US,330.7,35.0488,-97.9158,9,-231,0,0,0,-0.558920965,-0.476717765,-1.921756499, Normal, Normal, Dry,-0.855559705,-0.034601418,Central,Central
COOP:216211,ORR 3 E MN US,400.8,48.0508,-92.7636,9,-191,0,0,0,-0.558920965,-0.325833903,-1.583538833, Normal, Normal, Dry,1.758079284,0.353099252,North,Central
COOP:477052,REEDSBURG WI US,282.2,43.523,-90.0002,9,-171,-15,0,0,-1.796395704,-0.581109596,-1.414430001, Cold, Normal, Dry,0.847908955,0.561043826,Central,Central
COOP:341756,CHICKASHA 2 SSE MESONET OK US,328,35.03222,-97.91444,9,0,0,13,0,-0.558920965,-0.482529269,0.031450521, Normal, Normal, Normal,-0.858892588,-0.034499079,Central,Central
COOP:137386,SANBORN IA US,472.7,43.1791,-95.6602,9,-73,-2,0,0,-0.723917597,-0.171075704,-0.585796719, Normal, Normal, Normal,0.778778787,0.13513144,Central,Central
COOP:290640,AUGUSTINE 2 E NM US,2133.6,34.075,-107.6211,9,6,13,0,0,0.513557142,3.403860204,0.082183171, Normal, Very High, Normal,-1.051311255,-0.764920761,South,Central
COOP:478171,STEVENS POINT WI US,328.9,44.5113,-89.5855,9,-100,-6,0,0,-1.053910861,-0.480592101,-0.814093644, Cold, Normal, Normal,1.046575269,0.592249809,North,Central
COOP:095492,MANOR GA US,46.9,31.08333,-82.56528,9,0,0,10,0,-0.558920965,-1.087571405,0.031450521, Normal, Low, Normal,-1.652691455,1.120518122,South,East
COOP:247560,SIDNEY MT US,588.6,47.7283,-104.1468,9,-63,-26,3,0,-2.703877179,0.078388485,-0.501242303, Very Cold, Normal, Normal,1.693250906,-0.50348129,North,Central
COOP:234982,LINNEUS 3 SE MO US,248.1,39.857,-93.1497,9,593,2,0,0,-0.393924333,-0.654506739,5.045527417, Normal, Normal, Very Wet,0.110976134,0.324045405,Central,Central
COOP:342825,EL RENO 5 WNW MESONET OK US,418.8,35.54833,-98.03639,9,0,0,7,0,-0.558920965,-0.287090543,0.031450521, Normal, Normal, Normal,-0.75514507,-0.04367576,Central,Central
COOP:301595,COBLESKILL 2 ESE NY US,356.3,42.6667,-74.4333,9,-48,8,0,0,0.101065562,-0.421616098,-0.374410678, Normal, Normal, Normal,0.675777047,1.732445861,Central,East
COOP:261660,CHARLESTON NV US,1819,41.6814,-115.5289,9,0,25,0,0,1.503536932,2.726712371,0.031450521, Warm, Very High, Normal,0.477713788,-1.359979058,Central,West
COOP:094862,KITE GA US,94.8,32.7127,-82.5415,9,65,25,12,0,1.503536932,-0.98447102,0.581054228, Warm, Normal, Normal,-1.325158386,1.122307556,South,East
COOP:205168,MARLETTE MI US,249.9,43.3308,-83.0663,9,0,0,0,0,-0.558920965,-0.650632403,0.031450521, Normal, Normal, Normal,0.809273252,1.082816598,Central,East
COOP:509385,TONSINA AK US,481.3,61.651,-145.1702,9,-111,11,0,0,0.34856051,-0.152564988,-0.907103502, Normal, Normal, Normal,4.491967377,-3.590473193,Far North,West
COOP:417264,PRESIDIO 2 TX US,783.3,29.5599,-104.3728,9,0,0,20,0,-0.558920965,0.497462494,0.031450521, Normal, Normal, Normal,-1.958928652,-0.520487686,South,Central
COOP:461324,CACAPON STATE PARK 2 WV US,289.6,39.5064,-78.3158,9,-284,7,2,0,0.018567246,-0.56518177,-2.369894907, Normal, Normal, Very Dry,0.040499144,1.440289529,Central,East
COOP:456262,PACKWOOD WA US,323.1,46.6091,-121.6744,9,-62,25,0,0,1.503536932,-0.493076073,-0.492786861, Warm, Normal, Normal,1.468271306,-1.822425095,North,West
COOP:057167,ROCKY FORD 2 SE CO US,1271,38.0391,-103.6932,9,-12,13,9,0,0.513557142,1.547192305,-0.070014779, Normal, High, Normal,-0.254454901,-0.4693481,Central,Central
COOP:455133,MAZAMA WA US,652.6,48.6007,-120.4276,9,-6,16,0,0,0.761052089,0.216142653,-0.019282129, Normal, Normal, Normal,1.868619207,-1.728603971,North,West
COOP:190562,BELCHERTOWN MA US,166.7,42.2794,-72.3484,9,-260,5,0,0,-0.146429386,-0.829712821,-2.166964307, Normal, Normal, Very Dry,0.597922688,1.889333623,Central,East
COOP:445700,MONTICELLO VA US,231,38.0111,-78.4494,9,-210,16,1,0,0.761052089,-0.69131293,-1.744192225, Normal, Normal, Dry,-0.260083411,1.430236191,Central,East
COOP:049452,WASCO CA US,88.7,35.5892,-119.352,9,-9,49,25,0,3.483496514,-0.997600714,-0.044648454, Very Warm, Normal, Normal,-0.746929455,-1.647665568,Central,West
COOP:290600,ARTESIA 6 S NM US,1026,32.7547,-104.3835,9,553,-6,7,0,-1.053910861,1.019852129,4.707309751, Cold, High, Very Wet,-1.31671562,-0.521292856,South,Central
COOP:456295,PALMER 3 ESE WA US,280.4,47.3058,-121.8513,9,-36,38,0,0,2.576015039,-0.584983932,-0.272945378, Very Warm, Normal, Normal,1.608320705,-1.835736738,North,West
COOP:454154,KENNEWICK WA US,118.9,46.2111,-119.1011,9,-28,26,1,0,1.586035248,-0.932597966,-0.205301845, Warm, Normal, Normal,1.388266052,-1.628785459,North,West
COOP:205184,MARQUETTE WEATHER SERVICE OFFICE AIRPORT MI US,431.3,46.5313,-87.5491,9,38,-2,0,0,-0.723917597,-0.260185432,0.352757304, Normal, Normal, Normal,1.452632088,0.745487969,North,Central
COOP:416119,MOUNT VERNON TX US,136.2,33.1963,-95.2236,9,-265,23,13,0,1.338540301,-0.895361292,-2.209241515, Warm, Normal, Very Dry,-1.227945971,0.167985388,South,Central
COOP:355593,MILTON FREEWATER OR US,295.7,45.9428,-118.4089,9,-22,19,0,0,1.008547037,-0.552052076,-0.154569195, Warm, Normal, Normal,1.334332861,-1.576697728,North,West
COOP:340684,BESSIE 4 WNW MESONET OK US,510.8,35.40167,-99.05833,9,0,0,7,0,-0.558920965,-0.089068926,0.031450521, Normal, Normal, Normal,-0.784626404,-0.120576273,Central,Central
COOP:416104,MOUNT LOCKE TX US,2069.6,30.7053,-104.0232,9,121,-9,4,0,-1.301405808,3.266106036,1.05455896, Cold, Very High, Wet,-1.728682375,-0.494180448,South,Central
COOP:452007,DAVENPORT WA US,722.1,47.6575,-118.1615,9,-49,14,0,0,0.596055457,0.36573507,-0.38286612, Normal, Normal, Normal,1.679018815,-1.558080993,North,West
COOP:253910,HOLDREGE NE US,707.1,40.4518,-99.3802,9,93,-18,1,0,-2.043890652,0.333448937,0.817806594, Very Cold, Normal, Normal,0.230541776,-0.144796842,Central,Central
COOP:416108,MOUNT PLEASANT TX US,129.5,33.1688,-95.0055,9,-76,38,14,0,2.576015039,-0.909782432,-0.611163044, Very Warm, Normal, Normal,-1.233473972,0.184397312,South,Central
COOP:205178,MARQUETTE MI US,202.7,46.5458,-87.3795,9,119,-8,0,0,-1.218907492,-0.752226102,1.037648077, Cold, Normal, Wet,1.455546852,0.75825029,North,Central
COOP:417232,PRADE RANCH TX US,625.4,29.9167,-99.7908,9,-18,10,13,0,0.266062194,0.157597132,-0.120747429, Normal, Normal, Normal,-1.887205349,-0.175694302,South,Central
COOP:190593,BEVERLY MA US,19.8,42.588,-70.8371,9,-200,25,0,0,1.503536932,-1.145901686,-1.659637808, Warm, Low, Dry,0.659956913,2.00305825,Central,Far East
COOP:471847,COUDERAY 7 W WI US,396.2,45.8003,-91.4594,9,245,6,0,0,-0.06393107,-0.335734983,2.103033724, Normal, Normal, Very Wet,1.305687764,0.4512397,North,Central
COOP:452030,DAYTON 1 WSW WA US,474.6,46.3152,-118.0022,9,-28,14,0,0,0.596055457,-0.166986127,-0.205301845, Normal, Normal, Normal,1.409192049,-1.546093741,North,West
COOP:478190,STOCKBRIDGE MUNSEE RES WI US,320,44.87,-88.9044,9,0,0,0,0,-0.558920965,-0.49974854,0.031450521, Normal, Normal, Normal,1.118680507,0.64350227,North,Central
COOP:167932,ROCKEFELLR WL REFUGE LA US,1.2,29.7286,-92.818,9,322,6,1,0,-0.06393107,-1.185936491,2.754102731, Normal, Low, Very Wet,-1.925016877,0.349005677,South,Central
COOP:343818,GUTHRIE MUNICIPAL AIRPORT OK US,325.5,35.8517,-97.4142,9,-140,11,9,0,0.34856051,-0.487910291,-1.152311309, Normal, Normal, Dry,-0.694162171,0.00314375,Central,Central
COOP:114012,HENNEPIN IL US,157,41.2541,-89.3379,9,0,0,0,0,-0.558920965,-0.850591188,0.031450521, Normal, Normal, Normal,0.3918187,0.610881595,Central,Central
COOP:454169,KENT WA US,9.1,47.4172,-122.2433,9,54,34,0,0,2.246021776,-1.168932461,0.48804437, Very Warm, Low, Normal,1.630714135,-1.865234557,North,West
COOP:367073,POINT MARION LOCK 8 PA US,246.9,39.7275,-79.91306,9,-123,-10,0,0,-1.383904124,-0.657089629,-1.008568802, Cold, Normal, Dry,0.084944274,1.320096452,Central,East
COOP:417215,POTEET TX US,129.5,29.0283,-98.5687,9,-260,13,21,0,0.513557142,-0.909782432,-2.166964307, Normal, Normal, Very Dry,-2.065789942,-0.083731842,Far South,Central
COOP:247603,SILVER GATE MT US,2284.5,45.0156,-109.9684,9,0,0,0,0,-0.558920965,3.728658704,0.031450521, Normal, Very High, Normal,1.147948761,-0.941554002,North,Central
COOP:241102,BRIDGER 2 N MT US,1092.1,45.3261,-108.9091,9,9,-7,5,0,-1.136409177,1.162126356,0.107549496, Cold, High, Normal,1.210364921,-0.861842166,North,Central
COOP:292837,EL VADO DAM NM US,2054.4,36.5927,-106.73,9,-30,36,0,0,2.411018407,3.233389421,-0.222212728, Very Warm, Very High, Normal,-0.545207664,-0.697865897,Central,Central
COOP:145906,OBERLIN KS US,795.5,39.8188,-100.5341,9,60,-3,4,0,-0.806415913,0.523721882,0.53877702, Normal, Normal, Normal,0.103297238,-0.231627284,Central,Central
COOP:234911,LEXINGTON 2 SSW MO US,263.7,39.15694,-93.89056,9,0,0,1,0,-0.558920965,-0.62092916,0.031450521, Normal, Normal, Normal,-0.029748686,0.268296033,Central,Central
COOP:234919,LICKING 4 N MO US,359.7,37.5544,-91.883,9,-183,-7,4,0,-1.136409177,-0.414297908,-1.5158953, Cold, Normal, Dry,-0.351888435,0.419363995,Central,Central
COOP:188065,SAVAGE RIVER DAM MD US,455.7,39.5099,-79.1401,9,-240,1,0,0,-0.476422649,-0.207666655,-1.997855474, Normal, Normal, Dry,0.041202708,1.378261335,Central,East
COOP:343820,GUTHRIE 4 WSW MESONET OK US,329.8,35.84889,-97.47972,9,0,0,7,0,-0.558920965,-0.478654933,0.031450521, Normal, Normal, Normal,-0.694727032,-0.0017866,Central,Central
COOP:343821,GUTHRIE OK US,338.3,35.8161,-97.395,9,-156,17,8,0,0.843550405,-0.460359458,-1.287598376, Normal, Normal, Dry,-0.70131842,0.004588541,Central,Central
COOP:049378,VISTA 2 NNE CA US,155.4,33.2294,-117.2269,9,-22,29,7,0,1.833530196,-0.854035042,-0.154569195, Warm, Normal, Normal,-1.221292268,-1.487752774,South,West
COOP:292820,EL RITO NM US,2094,36.3466,-106.1877,9,25,27,0,0,1.668533564,3.318624813,0.242836562, Warm, Very High, Normal,-0.59467825,-0.657058073,Central,Central
COOP:301625,COLDEN 1 W NY US,467.9,42.6472,-78.7111,9,-81,-2,0,0,-0.723917597,-0.181407267,-0.653440252, Normal, Normal, Normal,0.671857192,1.410543387,Central,East
COOP:369298,WARREN PA US,368.8,41.84667,-79.14944,9,-128,8,0,0,0.101065562,-0.394710987,-1.05084601, Normal, Normal, Dry,0.51093607,1.377558504,Central,East
COOP:241127,BROADUS MT US,924.2,45.4441,-105.4072,9,48,19,6,0,1.008547037,0.800736905,0.43731172, Warm, Normal, Normal,1.234085071,-0.598325808,North,Central
COOP:247620,SIMPSON 6 N WILDHORSE MT US,858,48.998,-110.2157,9,-14,-4,2,0,-0.888914229,0.658247437,-0.086925662, Normal, Normal, Normal,1.948483749,-0.960163212,North,Central
COOP:133487,GRUNDY CENTER IA US,318.5,42.3647,-92.7594,9,6,-13,1,0,-1.631399072,-0.502977153,0.082183171, Cold, Normal, Normal,0.615069543,0.3534153,Central,Central
COOP:036768,SPARKMAN AR US,51.8,33.9153,-92.8267,9,-73,-1,4,0,-0.641419281,-1.077024602,-0.585796719, Normal, Low, Normal,-1.083413866,0.348351006,South,Central
COOP:049367,VISALIA CA US,106.7,36.3278,-119.2994,9,-10,32,17,0,2.081025144,-0.958857354,-0.053103895, Very Warm, Normal, Normal,-0.598457393,-1.643707442,Central,West
COOP:132367,DUBUQUE REGIONAL AIRPORT IA US,321.9,42.39778,-90.70361,9,-132,-15,0,0,-1.796395704,-0.495658963,-1.084667776, Cold, Normal, Dry,0.621719226,0.508112548,Central,Central
COOP:440327,ASHLAND VA US,67.1,37.75,-77.4833,9,-147,7,3,0,0.018567246,-1.044092746,-1.211499401, Normal, Low, Dry,-0.31256927,1.50293477,Central,East
COOP:049351,VINTON CA US,1508.8,39.8056,-120.1858,9,-13,13,0,0,0.513557142,2.059035136,-0.07847022, Normal, Very High, Normal,0.100643798,-1.710408633,Central,West
COOP:132364,DUBUQUE LOCK AND DAM 11 IA US,189,42.5399,-90.6461,9,-151,-15,0,0,-1.796395704,-0.781714103,-1.245321168, Cold, Normal, Dry,0.650287936,0.512440149,Central,Central
COOP:353356,GOLD BEACH RANGER STATION OR US,15.2,42.4036,-124.4242,9,233,24,0,0,1.421038617,-1.155802767,2.001568425, Warm, Low, Very Wet,0.622889152,-2.029346275,Central,West
COOP:354403,KENO OR US,1254.6,42.0945,-121.9021,9,0,0,0,0,-0.558920965,1.511892799,0.031450521, Normal, High, Normal,0.560754418,-1.839559415,Central,West
COOP:292848,ELEPHANT BUTTE DAM NM US,1393.2,33.146,-107.1843,9,177,12,8,0,0.431058826,1.81021667,1.528063692, Normal, High, Wet,-1.238057188,-0.732051763,South,Central
COOP:417195,PORTLAND TX US,10.7,27.892,-97.3393,9,0,0,11,0,-0.558920965,-1.165488607,0.031450521, Normal, Low, Normal,-2.294206953,0.00877994,Far South,Central
COOP:447904,SOMERSET VA US,155.4,38.2456,-78.2703,9,-298,13,6,0,0.513557142,-0.854035042,-2.48827109, Normal, Normal, Very Dry,-0.212944637,1.443713383,Central,East
COOP:242275,DEER LODGE 3 W MT US,1478.3,46.391,-112.7974,9,9,3,0,0,-0.311426018,1.993386665,0.107549496, Normal, High, Normal,1.424429231,-1.154434945,North,West
COOP:241169,BROCKWAY 3 WSW MT US,801.6,47.2876,-105.8299,9,-68,-15,1,0,-1.796395704,0.536851576,-0.543519511, Cold, Normal, Normal,1.604662173,-0.630133788,North,Central
COOP:417174,PORT ARTHUR SE TX REGIONAL AIRPORT TX US,4.9,29.95056,-94.02056,9,78,18,16,0,0.926048721,-1.177972578,0.690974969, Normal, Low, Normal,-1.880398872,0.258513593,South,Central
COOP:417176,PORT ARANSAS 11 SSW TX US,1.8,27.6998,-97.158,9,0,0,10,0,-0.558920965,-1.184645046,0.031450521, Normal, Low, Normal,-2.332842657,0.022422682,Far South,Central
COOP:417179,PORT ISABEL TX US,5.2,26.0941,-97.3094,9,0,0,3,0,-0.558920965,-1.177326856,0.031450521, Normal, Low, Normal,-2.655617624,0.011029902,Far South,Central
COOP:417183,PORT LAVACA TX US,5.5,28.6079,-96.6416,9,12,2,13,0,-0.393924333,-1.176681133,0.132915821, Normal, Low, Normal,-2.150298005,0.061281543,Far South,Central
COOP:447925,SOUTH BOSTON VA US,100.3,36.6954,-78.8807,9,-8,22,4,0,1.256041985,-0.972632771,-0.036193012, Warm, Normal, Normal,-0.524563093,1.397781065,Central,East
COOP:268822,WABUSKA 6 SE NV US,1310.6,39.0747,-119.1189,9,83,28,13,0,1.75103188,1.632427696,0.733252178, Warm, High, Normal,-0.046280425,-1.6301249,Central,West
COOP:417184,PORT MANSFIELD TX US,2.7,26.5577,-97.4263,9,495,4,10,0,-0.228927702,-1.182707878,4.216894136, Normal, Low, Very Wet,-2.562425574,0.002233231,Far South,Central
COOP:445690,MONTEBELLO FISH HATCHERY VA US,812.9,37.8444,-79.1303,9,0,0,0,0,-0.558920965,0.561173797,0.031450521, Normal, Normal, Normal,-0.29359315,1.37899878,Central,East
COOP:472973,FRIENDSHIP WI US,288,43.975,-89.8309,9,-125,-8,0,0,-1.218907492,-0.568625624,-1.025479685, Cold, Normal, Dry,0.938769194,0.573783573,Central,Central
COOP:060973,BURLINGTON CT US,153.9,41.7944,-72.932,9,-316,22,2,0,1.256041985,-0.857263655,-2.640469039, Warm, Normal, Very Dry,0.500428848,1.845417992,Central,East
COOP:116200,NORMAL 4 NE IL US,243.8,40.5493,-88.9501,9,273,-12,2,0,-1.548900756,-0.663762097,2.33978609, Cold, Normal, Very Wet,0.250141053,0.640063366,Central,Central
COOP:508615,SOLDOTNA 5 SSW AK US,54.9,60.4194,-151.1336,9,12,15,0,0,0.678553773,-1.070352134,0.132915821, Normal, Low, Normal,4.244393328,-4.039216289,Far North,West
COOP:283704,HARRISON NJ US,7.3,40.7514,-74.1567,9,-206,9,4,0,0.183563878,-1.172806797,-1.710370458, Normal, Low, Dry,0.290766837,1.753259883,Central,East
COOP:231674,CLEARWATER DAM MO US,201.2,37.1319,-90.7755,9,-43,-21,4,0,-2.291385599,-0.755454715,-0.33213347, Very Cold, Normal, Normal,-0.436818636,0.502702859,Central,Central
COOP:242221,DARBY MT US,1182.6,46.0263,-114.1763,9,-99,1,1,0,-0.476422649,1.35691936,-0.805638202, Normal, High, Normal,1.351117883,-1.258196533,North,West
COOP:133438,GREENFIELD IA US,408.4,41.298,-94.4561,9,294,-19,0,0,-2.126388967,-0.309475595,2.517350365, Very Cold, Normal, Very Wet,0.4006434,0.225739409,Central,Central
COOP:344951,LAHOMA 1 WSW MESONET OK US,395.9,36.38417,-98.11139,9,0,0,13,0,-0.558920965,-0.336380706,0.031450521, Normal, Normal, Normal,-0.587125995,-0.049319476,Central,Central
COOP:339361,XENIA 6 SSE OH US,295,39.61667,-83.9,9,-59,-5,0,0,-0.971412545,-0.553558762,-0.467420536, Normal, Normal, Normal,0.062665424,1.020081058,Central,East
COOP:144857,LOVEWELL DAM KS US,488.3,39.9,-98.0255,9,-52,-21,2,0,-2.291385599,-0.137498126,-0.408232445, Very Cold, Normal, Normal,0.119619918,-0.042856293,Central,Central
COOP:032444,FAYETTEVILLE EXPERIMENTAL STATION AR US,387.1,36.10056,-94.17444,9,0,0,0,0,-0.558920965,-0.355321904,0.031450521, Normal, Normal, Normal,-0.644136775,0.246934194,Central,Central
COOP:088620,STUART FL US,4,27.1897,-80.2397,9,225,-2,10,0,-0.723917597,-1.179909746,1.933924891, Normal, Low, Wet,-2.435382054,1.295516943,Far South,East
COOP:300448,BATH NY US,341.4,42.3488,-77.3477,9,-168,14,0,0,0.596055457,-0.45368699,-1.389063676, Normal, Normal, Dry,0.611873353,1.513138607,Central,East
COOP:300443,BATAVIA NY US,278.3,43.0303,-78.1692,9,-254,11,0,0,0.34856051,-0.58950399,-2.116231657, Normal, Normal, Very Dry,0.748867275,1.451321111,Central,East
COOP:422057,DEER CREEK DAM UT US,1606.3,40.4044,-111.5289,9,166,36,0,0,2.411018407,2.268895002,1.435053834, Very Warm, Very High, Wet,0.221013512,-1.058980906,Central,West
COOP:517150,OPAEULA 870 HI US,288,21.5738,-158.0379,9,0,0,0,0,-0.558920965,-0.568625624,0.031450521, Normal, Normal, Normal,-3.564280316,-4.558761675,Far South,Far West
COOP:043384,GEORGETOWN R S CA US,914.7,38.933,-120.8008,9,85,17,13,0,0.843550405,0.780289021,0.750163061, Normal, Normal, Normal,-0.074764707,-1.756687099,Central,West
COOP:188005,SALISBURY WICOMICO REGIONAL AIRPORT MD US,14.6,38.34056,-75.51028,9,40,37,4,0,2.493516723,-1.157094212,0.369668187, Very Warm, Low, Normal,-0.193855946,1.651403613,Central,East
COOP:188004,SALISBURY 2 N MD US,6.1,38.4083,-75.5922,9,0,0,5,0,-0.558920965,-1.175389688,0.031450521, Normal, Low, Normal,-0.180238971,1.645239171,Central,East
COOP:033909,KINGSTON 2 S AR US,653.8,36.0086,-93.5205,9,0,-9,0,0,-1.301405808,0.218725544,0.031450521, Cold, Normal, Normal,-0.662622411,0.296142877,Central,Central
COOP:166434,MOSS BLUFF 2 NNW LA US,7.6,30.3393,-93.2151,9,-202,10,15,0,0.266062194,-1.172161074,-1.676548692, Normal, Low, Dry,-1.802255046,0.319124086,South,Central
COOP:347570,RETROP 2 S MESONET OK US,538,35.12278,-99.36,9,0,0,9,0,-0.558920965,-0.030523404,0.031450521, Normal, Normal, Normal,-0.840688377,-0.143276801,Central,Central
COOP:246472,PHILIPSBURG RANGER STATION MT US,1606.3,46.3158,-113.3,9,-90,19,0,0,1.008547037,2.268895002,-0.729539227, Warm, Very High, Normal,1.40931266,-1.192255363,North,West
COOP:347507,RED ROCK 7 SSE MESONET OK US,292.9,36.35583,-97.15306,9,0,0,6,0,-0.558920965,-0.558078821,0.031450521, Normal, Normal, Normal,-0.592822852,0.022794414,Central,Central
COOP:032420,FAYETTEVILLE DRAKE FIELD AR US,381.3,36.0097,-94.1694,9,-124,4,2,0,-0.228927702,-0.367805876,-1.017024243, Normal, Normal, Dry,-0.662401291,0.247313451,Central,Central
COOP:517166,OPIHIHALE 2 24.1 HI US,414.5,19.2705,-155.8746,9,123,-7,0,0,-1.136409177,-0.296345901,1.071469843, Cold, Normal, Wet,-4.027285599,-4.395974349,Far South,Far West
COOP:216276,OTTERTAIL MN US,298.7,46.4313,-95.5463,9,49,-7,0,0,-1.136409177,-0.545594849,0.445767162, Cold, Normal, Normal,1.432530265,0.143702362,North,Central
COOP:267750,SPRING VALLEY ST PK NV US,1813.6,38.0405,-114.18,9,0,0,0,0,-0.558920965,2.715089363,0.031450521, Normal, Very High, Normal,-0.254173475,-1.258474956,Central,West
COOP:457342,SATUS PASS 2 SSW WA US,787.9,45.9481,-120.6669,9,0,0,0,0,-0.558920965,0.507363575,0.031450521, Normal, Normal, Normal,1.335398258,-1.746611185,North,West
COOP:292865,ELK NM US,1808.7,32.916,-105.3381,9,798,29,0,0,1.833530196,2.704542559,6.778892955, Warm, Very High, Very Wet,-1.28429138,-0.593126065,South,Central
COOP:133473,GRINNELL 3 SW IA US,275.8,41.7202,-92.7488,9,214,-14,0,0,-1.713897388,-0.594885013,1.840915033, Cold, Normal, Wet,0.485513295,0.354212945,Central,Central
COOP:366233,NEW CASTLE 1 N PA US,251.5,41.0172,-80.3615,9,-187,28,2,0,1.75103188,-0.647188548,-1.549717067, Warm, Normal, Dry,0.344197482,1.286351549,Central,East
COOP:010831,BIRMINGHAM AIRPORT AL US,187.5,33.56556,-86.745,9,-225,26,11,0,1.586035248,-0.784942717,-1.871023849, Warm, Normal, Dry,-1.153717981,0.805996122,South,Central
COOP:366238,NEW HOLLAND 2 SE PA US,184.4,40.075,-76.0717,9,-237,8,2,0,0.101065562,-0.791615184,-1.972489149, Normal, Normal, Dry,0.154798108,1.609157018,Central,East
COOP:665908,MARICAO 2 SSW US,863.2,18.1511,-66.9888,9,43,0,0,0,-0.558920965,0.669439963,0.395034512, Normal, Normal, Normal,-4.252305402,2.292641048,Far South,Far East
COOP:032400,FALLSVILLE 1 NNE AR US,670.9,35.7875,-93.4602,9,0,0,0,0,-0.558920965,0.255531736,0.031450521, Normal, Normal, Normal,-0.707067541,0.300680424,Central,Central
COOP:160349,ASHLAND LA US,73.2,32.1293,-93.1163,9,-225,3,11,0,-0.311426018,-1.030963052,-1.871023849, Normal, Low, Dry,-1.44243242,0.32655874,South,Central
COOP:216287,OWATONNA MN US,350.5,44.098,-93.2308,9,-134,-1,0,0,-0.641419281,-0.434100069,-1.10157866, Normal, Normal, Dry,0.963494436,0.317942668,Central,Central
COOP:409065,TOWNSEND 5 S TN US,550.8,35.6031,-83.7781,9,12,2,0,0,-0.393924333,-0.002972571,0.132915821, Normal, Normal, Normal,-0.744135302,1.029253977,Central,East
COOP:210355,AUSTIN WASTE WATER TREATMENT FACILITY MN US,365.5,43.6542,-92.9739,9,9,0,0,0,-0.558920965,-0.401813936,0.107549496, Normal, Normal, Normal,0.874282547,0.337274274,Central,Central
COOP:028329,SUNSET CRATER NATIONAL MON AZ US,2127.5,35.3694,-111.5436,9,-77,16,0,0,0.761052089,3.39073051,-0.619618486, Normal, Very High, Normal,-0.791113262,-1.060087074,Central,West
COOP:424342,JENSEN UT US,1443.5,40.361,-109.3463,9,86,24,1,0,1.421038617,1.918482836,0.758618503, Warm, High, Normal,0.212289321,-0.894741264,Central,Central
COOP:356540,PENDLETON BR EXPERIMENTAL STATION OR US,453.2,45.7206,-118.6264,9,-44,13,0,0,0.513557142,-0.213047677,-0.340588911, Normal, Normal, Normal,1.289666611,-1.593064503,North,West
COOP:356541,PENDLETON DOWNTOWN OR US,317,45.6703,-118.7964,9,0,0,1,0,-0.558920965,-0.506205767,0.031450521, Normal, Normal, Normal,1.279555394,-1.605856924,North,West
COOP:356546,PENDLETON E OR REGIONAL AIRPORT OR US,452.9,45.6983,-118.8547,9,-35,15,0,0,0.678553773,-0.2136934,-0.264489937, Normal, Normal, Normal,1.285183905,-1.610243972,North,West
COOP:160549,BATON ROUGE RYAN AIRPORT LA US,19.5,30.5372,-91.1469,9,-148,10,16,0,0.266062194,-1.146547409,-1.219954843, Normal, Low, Dry,-1.762473539,0.47475518,South,Central
COOP:506586,NORTHWAY AIRPORT AK US,522.1,62.9617,-141.9378,9,105,8,0,0,0.101065562,-0.064746705,0.919271894, Normal, Normal, Normal,4.755441967,-3.347236586,Far North,West
COOP:506581,NORTH POLE AK US,144.8,64.7581,-147.3253,9,102,-11,0,0,-1.46640244,-0.876850576,0.893905569, Cold, Normal, Normal,5.11655111,-3.752643473,Far North,West
COOP:028326,SUNRISE MOUNTAIN AZ US,2856,33.9733,-109.563,9,0,0,0,0,-0.558920965,4.958760379,0.031450521, Normal, Very High, Normal,-1.071754809,-0.911047839,South,Central
COOP:356532,PELTON DAM OR US,429.8,44.7275,-121.2505,9,-10,29,8,0,1.833530196,-0.263414045,-0.053103895, Warm, Normal, Normal,1.09003541,-1.790526816,North,West
COOP:502149,COOPER LANDING 5 W AK US,114.3,60.4875,-149.9681,9,0,0,0,0,-0.558920965,-0.942499047,0.031450521, Normal, Normal, Normal,4.25808267,-3.951512952,Far North,West
COOP:160537,BASTROP LA US,45.7,32.7313,-91.9144,9,-235,6,6,0,-0.06393107,-1.090154296,-1.955578266, Normal, Low, Dry,-1.321419447,0.41700116,South,Central
COOP:425807,MONTICELLO NUMBER 2 UT US,2159.8,37.8676,-109.3513,9,0,0,0,0,-0.558920965,3.460253317,0.031450521, Normal, Very High, Normal,-0.288929527,-0.895117512,Central,Central
COOP:246691,POWDERVILLE 8 NNE MT US,853.4,45.8525,-105.035,9,-26,-5,4,0,-0.971412545,0.648346356,-0.188390962, Normal, Normal, Normal,1.316180915,-0.57031793,North,Central
COOP:503275,GILMORE CREEK AK US,288,64.9766,-147.5211,9,167,-5,0,0,-0.971412545,-0.568625624,1.443509276, Normal, Normal, Wet,5.160473593,-3.767377332,Far North,West
COOP:110764,BLOOMINGTON 5 W IL US,237.7,40.4864,-89.0865,9,237,-24,1,0,-2.538880547,-0.676891791,2.035390191, Very Cold, Normal, Very Wet,0.237497007,0.629799329,Central,Central
COOP:339406,YOUNGSTOWN REGIONAL AIRPORT OH US,359.7,41.25444,-80.67389,9,-185,-1,0,0,-0.641419281,-0.414297908,-1.532806184, Normal, Normal, Dry,0.391887046,1.262844346,Central,East
COOP:502112,COLLEGE 5 NW AK US,298.1,64.925,-147.88028,9,0,0,0,0,-0.558920965,-0.546886295,0.031450521, Normal, Normal, Normal,5.150101053,-3.794405461,Far North,West
COOP:664276,GURABO SUBSTATION US,48.8,18.2583,-65.9922,9,529,0,19,0,-0.558920965,-1.083481828,4.504379152, Normal, Low, Very Wet,-4.230756248,2.367634737,Far South,Far East
COOP:356550,PENDLETON WEATHER FORECAST OFFICE OR US,460.2,45.691,-118.8523,9,-36,25,1,0,1.503536932,-0.197980815,-0.272945378, Warm, Normal, Normal,1.283716472,-1.610063373,North,West
COOP:339417,ZANESVILLE MUNICIPAL AIRPORT OH US,268.2,39.94444,-81.89222,9,-191,-4,0,0,-0.888914229,-0.61124332,-1.583538833, Normal, Normal, Dry,0.128553168,1.171165576,Central,East
COOP:231711,CLINTON MO US,234.7,38.395,-93.7711,9,-154,0,4,0,-0.558920965,-0.683349018,-1.270687493, Normal, Normal, Dry,-0.182912514,0.277285342,Central,Central
COOP:461290,BURTON WV US,378,39.6466,-80.4066,9,0,14,0,0,0.596055457,-0.374908825,0.031450521, Normal, Normal, Normal,0.068681899,1.282957795,Central,East
COOP:246672,PORT OF MORGAN MT US,862.6,48.9977,-107.833,9,54,-13,0,0,-1.631399072,0.668148518,0.48804437, Cold, Normal, Normal,1.948423443,-0.780866138,North,Central
COOP:502126,COLVILLE VILLAGE US,1.5,70.4322,-150.4094,9,26,6,0,1,-0.06393107,-1.185290768,0.251292004, Normal, Low, Normal,6.257148633,-3.984720573,Far North,West
COOP:114198,HOOPESTON IL US,216.4,40.4664,-87.6851,9,250,-19,1,0,-2.126388967,-0.7227381,2.145310933, Very Cold, Normal, Very Wet,0.233476642,0.735254031,Central,Central
COOP:246647,POMPEYS PILLAR 18 N MT US,1033.3,46.1971,-108.004,9,-51,-32,1,0,-3.198867074,1.035564714,-0.399777003, Very Cold, High, Normal,1.385451796,-0.793733809,North,Central
COOP:035320,NORTH LITTLE ROCK AIRPORT AR US,171.6,34.8353,-92.2596,9,-224,6,7,0,-0.06393107,-0.819166018,-1.862568408, Normal, Normal, Dry,-0.898477097,0.391025019,Central,Central
COOP:368073,SHIPPENSBURG PA US,207.3,40.05889,-77.52139,9,-200,3,1,0,-0.311426018,-0.742325021,-1.659637808, Normal, Normal, Dry,0.151559704,1.500068515,Central,East
COOP:231748,COLE CAMP 3 NW MO US,307.2,38.4844,-93.2555,9,-175,-9,3,0,-1.301405808,-0.527299374,-1.448251767, Cold, Normal, Dry,-0.164941484,0.316084004,Central,Central
COOP:248783,WESTERN AG RESEARCH MT US,1096.4,46.3286,-114.0836,9,-69,29,1,0,1.833530196,1.171381714,-0.551974953, Warm, High, Normal,1.411885693,-1.251220901,North,West
COOP:425837,MORONI UT US,1694.7,39.5266,-111.5872,9,157,38,0,0,2.576015039,2.459167947,1.358954859, Very Warm, Very High, Wet,0.044559712,-1.063367954,Central,West
COOP:246640,POLSON KERR DAM MT US,832.1,47.6775,-114.2419,9,-67,4,0,0,-0.228927702,0.602500047,-0.535064069, Normal, Normal, Normal,1.68303918,-1.263132903,North,West
COOP:215204,MARSHALL MN US,351.1,44.4706,-95.7908,9,-177,23,0,0,1.338540301,-0.432808624,-1.46516265, Warm, Normal, Dry,1.038393827,0.12530385,North,Central
COOP:210387,BABBITT MN US,451.4,47.7121,-91.9533,9,0,0,0,0,-0.558920965,-0.216922013,0.031450521, Normal, Normal, Normal,1.68999441,0.414073953,North,Central
COOP:032366,EVENING SHADE 1 NNE AR US,152.4,36.07167,-91.61694,9,-216,-19,5,0,-2.126388967,-0.860492268,-1.794924875, Very Cold, Normal, Dry,-0.649944191,0.439384887,Central,Central
COOP:502107,COLLEGE OBSERVATORY AK US,182,64.8603,-147.8484,9,126,4,0,0,-0.228927702,-0.796780966,1.096836168, Normal, Normal, Wet,5.137095173,-3.792006506,Far North,West
COOP:502102,COLD BAY AIRPORT AK US,23.8,55.22083,-162.7325,9,74,27,0,0,1.668533564,-1.13729205,0.657153203, Warm, Low, Normal,3.199386003,-4.912028157,Far North,West
COOP:416074,MORTON TX US,1150.3,33.7184,-102.7585,9,231,-14,5,0,-1.713897388,1.287396553,1.984657541, Cold, High, Wet,-1.122994355,-0.399012357,South,Central
COOP:133517,GUTTENBERG LOCK AND DAM 10 IA US,188.4,42.7858,-91.0958,9,-12,-11,0,0,-1.46640244,-0.783005549,-0.070014779, Cold, Normal, Normal,0.699718318,0.478600432,Central,Central
COOP:098064,SILOAM 3 N GA US,211.8,33.5635,-83.0768,9,-28,4,4,0,-0.228927702,-0.732639181,-0.205301845, Normal, Normal, Normal,-1.154132078,1.082026478,South,East
COOP:424321,JARVIE RANCH UT US,1662.4,40.8991,-109.1788,9,105,0,0,0,-0.558920965,2.38964514,0.919271894, Normal, Very High, Normal,0.320457229,-0.882136966,Central,Central
COOP:043244,FREMONT CA US,11.6,37.5422,-122.0158,9,19,18,0,0,0.926048721,-1.163551439,0.192103912, Normal, Low, Normal,-0.354340858,-1.848115287,Central,West
COOP:246635,POLSON MT US,917.4,47.6749,-114.1905,9,-70,15,0,0,0.678553773,0.786100525,-0.560430394, Normal, Normal, Normal,1.682516532,-1.259265077,North,West
COOP:121256,CANNELTON IN US,122.5,37.8994,-86.7072,9,0,0,1,0,-0.558920965,-0.924849294,0.031450521, Normal, Normal, Normal,-0.282537147,0.808840555,Central,Central
COOP:354291,JOHN DAY OR US,933.6,44.4233,-118.9594,9,-41,2,0,0,-0.393924333,0.820969549,-0.315222587, Normal, Normal, Normal,1.028885665,-1.618122599,North,West
COOP:133509,GUTHRIE CENTER IA US,327.7,41.6686,-94.4972,9,158,-8,1,0,-1.218907492,-0.483174992,1.367410301, Cold, Normal, Wet,0.475140755,0.222646653,Central,Central
COOP:204161,JACOBSVILLE MI US,198.1,47.0083,-88.4318,9,0,0,0,0,-0.558920965,-0.762127183,0.031450521, Normal, Normal, Normal,1.548517782,0.679065201,North,Central
COOP:503294,GLACIER BAY AK US,13.7,58.4561,-135.8692,9,-165,15,0,0,0.678553773,-1.15903138,-1.363697351, Normal, Low, Dry,3.849734243,-2.890577239,Far North,West
COOP:503299,GLEN ALPS AK US,671.2,61.1,-149.6936,9,-60,17,0,0,0.843550405,0.256177458,-0.475875978, Normal, Normal, Normal,4.381206334,-3.930856954,Far North,West
COOP:260691,BATTLE MOUNTAIN 4 SE NV US,1373.1,40.6118,-116.8917,9,-10,30,15,0,1.916028512,1.766953251,-0.053103895, Warm, High, Normal,0.262704692,-1.462529129,Central,West
COOP:248777,WESTBY MT US,641.6,48.8744,-104.0502,9,1,17,2,0,0.843550405,0.192466156,0.039905963, Normal, Normal, Normal,1.923637896,-0.496212185,North,Central
COOP:166303,MONROE REGIONAL AIRPORT LA US,24.1,32.5155,-92.0405,9,-238,11,16,0,0.34856051,-1.136646328,-1.980944591, Normal, Low, Dry,-1.36479918,0.407512193,South,Central
COOP:471923,CUMBERLAND WI US,378,45.5333,-92.0221,9,-5,3,0,0,-0.311426018,-0.374908825,-0.010826687, Normal, Normal, Normal,1.252015897,0.408896785,North,Central
COOP:057033,RIFLE 3 ENE CO US,1667,39.5572,-107.7261,9,0,0,0,0,-0.558920965,2.399546221,0.031450521, Normal, Very High, Normal,0.05071087,-0.772821962,Central,Central
COOP:244386,INGOMAR 11 NE MT US,851.9,46.7391,-107.2077,9,-91,-17,2,0,-1.961392336,0.645117743,-0.737994669, Cold, Normal, Normal,1.494403675,-0.733812602,North,Central
COOP:057034,RIFLE GARFIELD CO AIRPORT CO US,1683.1,39.52778,-107.71972,9,68,21,0,0,1.173543669,2.434200004,0.606420553, Warm, Very High, Normal,0.044796914,-0.77234187,Central,Central
COOP:145888,OAKLEY 4 W KS US,944.9,39.113,-100.9448,9,23,4,4,0,-0.228927702,0.845291769,0.225925679, Normal, Normal, Normal,-0.038581427,-0.262532269,Central,Central
COOP:114108,HILLSBORO IL US,192,39.16111,-89.49194,9,-16,-13,3,0,-1.631399072,-0.775256877,-0.103836545, Cold, Normal, Normal,-0.02891044,0.599290156,Central,Central
COOP:353193,GARDINER 1 N OR US,9.1,43.7463,-124.1216,9,92,0,1,0,-0.558920965,-1.168932461,0.809351152, Normal, Low, Normal,0.892796325,-2.006575765,Central,West
COOP:417140,POINT COMFORT TX US,6.1,28.6575,-96.5553,9,-48,-9,5,0,-1.301405808,-1.175389688,-0.374410678, Cold, Low, Normal,-2.140327501,0.067775578,Far South,Central
COOP:246601,PLEVNA MT US,847.3,46.4177,-104.5163,9,-56,-8,2,0,-1.218907492,0.635216662,-0.442054211, Cold, Normal, Normal,1.429796417,-0.531285995,North,Central
COOP:060806,BRIDGEPORT SIKORSKY MEMORIAL AIRPORT CT US,1.5,41.15833,-73.12889,9,-138,16,1,0,0.761052089,-1.185290768,-1.135400426, Normal, Low, Dry,0.372567184,1.830602111,Central,East
COOP:027281,ROOSEVELT 1 WNW AZ US,672.1,33.6731,-111.1508,9,231,26,19,0,1.586035248,0.258114626,1.984657541, Warm, Normal, Wet,-1.13210048,-1.030529056,South,West
COOP:093465,FOLKSTON 9 SW GA US,36.6,30.74,-82.1278,9,0,0,0,0,-0.558920965,-1.109741217,0.031450521, Normal, Low, Normal,-1.721707042,1.15343829,South,East
COOP:288173,SOMERDALE 4 SW NJ US,16.8,39.8372,-75.0442,9,0,0,3,0,-0.558920965,-1.152358913,0.031450521, Normal, Low, Normal,0.106995974,1.686475918,Central,East
COOP:254906,LODGEPOLE NUMBER 2 NE US,1181.4,41.1531,-102.64,9,0,0,2,0,-0.558920965,1.354336469,0.031450521, Normal, High, Normal,0.371515859,-0.390095286,Central,Central
COOP:478027,SPOONER EXPERIMENTAL FARM WI US,335.3,45.8236,-91.8761,9,353,-5,0,0,-0.971412545,-0.466816684,3.016221422, Normal, Normal, Very Wet,1.310371489,0.419883217,North,Central
COOP:254903,LODGEPOLE 8 N NE US,1184.5,41.2663,-102.6585,9,143,14,4,0,0.596055457,1.361008937,1.240578676, Normal, High, Wet,0.394271122,-0.391487403,Central,Central
